id,store_id,year_recorded,unit,civic_number,street_name,name,category,latitude,longitude
1,1984,2020,N/A,3504,W 4TH AV,Forerunners Enterprises,Comparison Goods,49.26829910736703,-123.18198147633284
2,1985,2020,N/A,3510,W 4TH AV,Double DD Pizza,Food & Beverage,49.268302509426235,-123.1821886290571
3,1992,2020,N/A,3570,W 4TH AV,Restore Human,Service Commercial,49.268321296539,-123.1833630398489
4,1998,2020,N/A,3598,W 4TH AV,Aphrodites Organic Pie Shop,Convenience Goods,49.268321296539,-123.1833630398489
5,2001,2020,N/A,3611,W 4TH AV,Vacant,Vacant,49.268860945244235,-123.18403436841272
6,2002,2020,N/A,3615,W 4TH AV,Trulton Realty,Service Commercial,49.268860945244235,-123.18403436841272
7,2007,2020,N/A,3629,W 4TH AV,Happy 3 Consignment Ltd,Comparison Goods,49.26886863466641,-123.18451808756963
8,2008,2020,N/A,3630,W 4TH AV,Rugs & More,Comparison Goods,49.268352380423636,-123.18439961731059
9,2012,2020,N/A,3642,W 4TH AV,Kestrel Books,Comparison Goods,49.2683571852624,-123.18467640301425
10,2014,2020,N/A,3659,W 4TH AV,Vacant,Vacant,49.268877426184055,-123.18507120127674
11,2017,2020,N/A,3662,W 4TH AV,Heritage Home Supplies,Comparison Goods,49.268361627201976,-123.18495301971518
12,2020,2020,N/A,3669,W 4TH AV,Okanagan Wine Cellars,Convenience Goods,49.268877426184055,-123.18507120127674
13,2023,2020,N/A,3680,W 4TH AV,Rebecca Bree,Convenience Goods,49.26835530754138,-123.18535470629834
14,2025,2020,N/A,3686,W 4TH AV,Beyond Bread Artisan Bakery,Convenience Goods,49.26835530754138,-123.18535470629834
15,2026,2020,N/A,3687,W 4TH AV,Lufficio Restaurant,Food & Beverage,49.268881828076594,-123.1853475211078
16,2030,2020,N/A,3698,W 4TH AV,Blenz Coffee,Food & Beverage,49.26835530754138,-123.18535470629834
17,2031,2020,N/A,3750,W 4TH AV,Breka Downtown Bakery Café,Food & Beverage,49.26819526630278,-123.18637769134192
18,2037,2020,N/A,3288,DUNBAR ST,Preventum Skin,Service Commercial,49.25758668797599,-123.1846858158127
19,2040,2020,N/A,3308,DUNBAR ST,Gold Star Shoe Rebuilders,Service Commercial,49.25721201260662,-123.18472586352902
20,2043,2020,N/A,3323,DUNBAR ST,Vacant,Vacant,49.257113209959144,-123.18550178029385
21,2045,2020,N/A,3336,DUNBAR ST,Mai's Dry Cleaner,Service Commercial,49.25698621394523,-123.18472794532526
22,2049,2020,N/A,3352,DUNBAR ST,Visual Space Gallery,Comparison Goods,49.25698621394523,-123.18472794532526
23,2052,2020,N/A,3368,DUNBAR ST,Sunflower Spa,Service Commercial,49.256735110440175,-123.18473082594468
24,2053,2020,N/A,3378,DUNBAR ST,Vacant,Vacant,49.256735110440175,-123.18473082594468
25,2056,2020,N/A,3393,DUNBAR ST,Vacant,Vacant,49.256711670412955,-123.18550630716342
26,2058,2020,N/A,3420,DUNBAR ST,Vacant,Vacant,49.256257735433756,-123.18473444523634
27,2060,2020,N/A,3432,DUNBAR ST,La Canapa,Convenience Goods,49.256167291473275,-123.18473538300822
28,2070,2020,120,3479,DUNBAR ST,Johnston Meier Insurance,Service Commercial,49.25603288519235,-123.1855065407093
29,2071,2020,N/A,3479,DUNBAR ST,Hillhouse Education,Service Commercial,49.25603288519235,-123.1855065407093
30,2073,2020,N/A,3496,DUNBAR ST,Pan Fo Si Meditation,Entertainment and Leisure,49.255715062687216,-123.18474005117592
31,2074,2020,N/A,4168,DUNBAR ST,Life Chiropractor,Service Commercial,49.24928649338968,-123.1848317929129
32,2076,2020,N/A,4188,DUNBAR ST,Doggy Darecare,Service Commercial,49.24928649338968,-123.1848317929129
33,2084,2020,N/A,4221,DUNBAR ST,Café Artigiano,Food & Beverage,49.24848461035401,-123.18562638889289
34,2086,2020,N/A,4238,DUNBAR ST,Top Cut Barber,Service Commercial,49.24874770524774,-123.18485131297993
35,2091,2020,N/A,4288,DUNBAR ST,Wild Sushi,Food & Beverage,49.24824725743236,-123.18484104240629
36,2094,2020,N/A,4295,DUNBAR ST,Buntain Insurance,Service Commercial,49.24848461035401,-123.18562638889289
37,2095,2020,N/A,4298,DUNBAR ST,Dominos Pizza,Food & Beverage,49.24824725743236,-123.18484104240629
38,2099,2020,N/A,4315,DUNBAR ST,Enmark Jewellers Ltd.,Comparison Goods,49.247866948573304,-123.18553479185725
39,2101,2020,N/A,4326,DUNBAR ST,Shoppers Drug Mart,Convenience Goods,49.24752684070252,-123.18484106674339
40,2108,2020,N/A,4395,DUNBAR ST,Bank of Montreal,Service Commercial,49.247299456380226,-123.1855587908832
41,2117,2020,N/A,4497,DUNBAR ST,The Dunbar,Food & Beverage,49.24644160238141,-123.18567067500143
42,2123,2020,N/A,4555,DUNBAR ST,Dunbar Theatre,Entertainment and Leisure,49.24555580730466,-123.18560056814317
43,2130,2020,N/A,5520,DUNBAR ST,Elite Montessori,Service Commercial,49.23606979171254,-123.18502320602808
44,2144,2020,N/A,5640,DUNBAR ST,Andrew Wilkinson MLA,Service Commercial,49.23519562939841,-123.18496584702586
45,2151,2020,N/A,3636,W 16TH AV,Prime Personal Training,Entertainment and Leisure,49.25760592394863,-123.18594615572123
46,2157,2020,N/A,3502,W 41ST AV,Bosley's Pet Food,Comparison Goods,49.234467269080305,-123.18249200185862
47,2159,2020,N/A,3516,W 41ST AV,30 Minute Hit,Entertainment and Leisure,49.234467269080305,-123.18249200185862
48,2163,2020,N/A,3535,W 41ST AV,Save on Foods,Convenience Goods,49.235082831970765,-123.1844283039008
49,2164,2020,N/A,3536,W 41ST AV,Da Future Studio,Service Commercial,49.234493210944315,-123.18371473408153
50,2165,2020,N/A,3548,W 41ST AV,Educational Book Supply,Comparison Goods,49.234493210944315,-123.18371473408153
51,2169,2020,N/A,3556,W 41ST AV,Busy Bee Dry Cleaning,Service Commercial,49.234493210944315,-123.18371473408153
52,2173,2020,N/A,3579,W 41ST AV,Southlands Dental Group,Service Commercial,49.23495748738697,-123.18488032341041
53,2178,2020,N/A,3596,W 41ST AV,Shell Canada Limited,Automotive Goods & Services,49.234481503889555,-123.1849508424323
54,2181,2020,N/A,1016,ALBERNI ST,LFX Jewelry,Comparison Goods,49.28402648462608,-123.12236084929206
55,2184,2020,N/A,1032,ALBERNI ST,Black and Blue Restaurant,Food & Beverage,49.28445288453749,-123.12301925401955
56,2185,2020,N/A,1033,ALBERNI ST,Rimowa,Comparison Goods,49.2845455907278,-123.12198907740935
57,2186,2020,N/A,1035,ALBERNI ST,Jimmy Choo,Comparison Goods,49.2845455907278,-123.12198907740935
58,2187,2020,N/A,1037,ALBERNI ST,Vacant,Vacant,49.2845455907278,-123.12198907740935
59,2190,2020,N/A,1054,ALBERNI ST,Coast Restaurant,Food & Beverage,49.28464068115628,-123.12330968558508
60,2191,2020,N/A,1055,ALBERNI ST,Vacheron Constantin Boutique,Comparison Goods,49.2845455907278,-123.12198907740935
61,2193,2020,N/A,1061,ALBERNI ST,Oliver Peoples,Comparison Goods,49.28511832284714,-123.1228733215244
62,2196,2020,101,1076,ALBERNI ST,Off White Vancouver,Comparison Goods,49.28486355788119,-123.12365339959302
63,2200,2020,N/A,1092,ALBERNI ST,Tory Burch,Comparison Goods,49.28486355788119,-123.12365339959302
64,2203,2020,N/A,1108,ALBERNI ST,Blu Bird,Comparison Goods,49.28537197473215,-123.12443709105067
65,2204,2020,N/A,1119,ALBERNI ST,Rolex Boutique,Comparison Goods,49.285945646915266,-123.12415055654643
66,2205,2020,N/A,1121,ALBERNI ST,The Keg Steakhouse + Bar,Food & Beverage,49.285945646915266,-123.12415055654643
67,2207,2020,N/A,1136,ALBERNI ST,Neptune Chinese Kitchen,Food & Beverage,49.28572197263361,-123.12497781051809
68,2210,2020,N/A,1158,ALBERNI ST,A&W Restaurant,Food & Beverage,49.2861674281454,-123.12566603139663
69,2211,2020,N/A,1162,ALBERNI ST,Subway,Food & Beverage,49.2861674281454,-123.12566603139663
70,2215,2020,N/A,1172,ALBERNI ST,Kirin Mandarin Restaurant,Food & Beverage,49.2861674281454,-123.12566603139663
71,2218,2020,N/A,723,BURRARD ST,Tiffany & Co Canada,Comparison Goods,49.2845455907278,-123.12198907740935
72,2220,2020,N/A,753,BURRARD ST,Wolford Canada Inc,Comparison Goods,49.28402648462608,-123.12236084929206
73,2222,2020,202,755,BURRARD ST,Shabusen Japanese Yakiniku,Food & Beverage,49.28402648462608,-123.12236084929206
74,2235,2020,N/A,820,BURRARD ST,Joey Burrard Grill,Food & Beverage,49.282678361394666,-123.1230968580031
75,2240,2020,N/A,860,BURRARD ST,Italian Kitchen,Food & Beverage,49.282678361394666,-123.1230968580031
76,2241,2020,101,888,BURRARD ST,Spence Diamonds Ltd,Comparison Goods,49.28222274385909,-123.12378574369022
77,2243,2020,103,888,BURRARD ST,The Ballyhoo Public House,Food & Beverage,49.28222274385909,-123.12378574369022
78,2246,2020,N/A,900,BURRARD ST,Famous Players Limited Partnership,Entertainment and Leisure,49.28157566920938,-123.12420172466877
79,2251,2020,N/A,1015,BURRARD ST,Beyond Coffee,Food & Beverage,49.28102800353913,-123.12730583075536
80,2252,2020,N/A,1015,BURRARD ST,Absolute Spa,Service Commercial,49.28102800353913,-123.12730583075536
81,2256,2020,102,1100,BURRARD ST,Elysian Coffee #4 Inc,Food & Beverage,49.279688629437324,-123.12761958163081
82,2261,2020,N/A,1200,BURRARD ST,TD Bank,Service Commercial,49.278586012016234,-123.12928611552073
83,2262,2020,N/A,1228,BURRARD ST,NNB Barber Shop,Service Commercial,49.27843990971352,-123.12950686018802
84,2264,2020,N/A,1237,BURRARD ST,Mink Lash Boutique,Service Commercial,49.278790450985134,-123.1302991091638
85,2265,2020,N/A,1242,BURRARD ST,Performance Vision Optometry,Service Commercial,49.27843990971352,-123.12950686018802
86,2267,2020,N/A,1253,BURRARD ST,Burrard Corner Store,Convenience Goods,49.27840772302635,-123.1308809125838
87,2271,2020,N/A,1310,BURRARD ST,Vacant,Vacant,49.27736397555993,-123.13114764230289
88,2273,2020,N/A,1315,BURRARD ST,Bees Knees,Comparison Goods,49.278056215925616,-123.13131502099768
89,2277,2020,N/A,1344,BURRARD ST,Cycle City Tours and Rentals,Comparison Goods,49.27736397555993,-123.13114764230289
90,2279,2020,1,1348,BURRARD ST,Minuteman Press,Service Commercial,49.27736397555993,-123.13114764230289
91,2283,2020,N/A,1354,BURRARD ST,Burrard Dry Cleaner,Service Commercial,49.27736397555993,-123.13114764230289
92,2284,2020,N/A,1361,BURRARD ST,Osaka Sushi,Food & Beverage,49.27776643317156,-123.13204136889718
93,2286,2020,N/A,487,DAVIE ST,Sage Clinic,Service Commercial,49.27598491212113,-123.12353112288253
94,2289,2020,N/A,508,DAVIE ST,Nuba Restaurant Group Inc,Food & Beverage,49.27577554498922,-123.12494132258297
95,2295,2020,N/A,580,DAVIE ST,Vacant,Vacant,49.27614294595592,-123.1252108170835
96,2297,2020,N/A,594,DAVIE ST,Royal Vape Inc,Convenience Goods,49.27614294595592,-123.1252108170835
97,2300,2020,N/A,620,DAVIE ST,Manoush'eh,Food & Beverage,49.27661580200485,-123.12568082344094
98,2307,2020,N/A,700,DAVIE ST,Blenz Coffee,Food & Beverage,49.27722958008942,-123.1266680104921
99,2308,2020,N/A,708,DAVIE ST,Numero Uno Pizza,Food & Beverage,49.27722958008942,-123.1266680104921
100,2309,2020,N/A,712,DAVIE ST,BC Produce,Convenience Goods,49.27722958008942,-123.1266680104921
101,2314,2020,N/A,746,DAVIE ST,Body Energy Club Ltd,Convenience Goods,49.27735324868997,-123.12730553863715
102,2321,2020,N/A,809,DAVIE ST,Topdrawers Apparel Inc,Comparison Goods,49.2783027028566,-123.12696559832357
103,2323,2020,N/A,819,DAVIE ST,Javan Exchange,Service Commercial,49.2783027028566,-123.12696559832357
104,2324,2020,N/A,823,DAVIE ST,Ace High Barber Shop Ltd,Service Commercial,49.2783027028566,-123.12696559832357
105,2330,2020,N/A,855,DAVIE ST,Breka Bakery and Cafe Inc,Food & Beverage,49.27849937630124,-123.12749330080725
106,2332,2020,N/A,903,DAVIE ST,Sushi Mugen,Food & Beverage,49.27885882652114,-123.1280489155382
107,2333,2020,N/A,904,DAVIE ST,7-Eleven Store,Convenience Goods,49.27836105661689,-123.12856559763067
108,2339,2020,N/A,937,DAVIE ST,ABC Jewellery & Loan Pawnbrokers Ltd,Comparison Goods,49.27908390295987,-123.12876943452235
109,2350,2020,N/A,450,GRANVILLE ST,Trees Organic Coffee Co,Food & Beverage,49.28473749608962,-123.11441549633143
110,2356,2020,N/A,480,GRANVILLE ST,Dunns Tailor,Comparison Goods,49.28473749608962,-123.11441549633143
111,2358,2020,N/A,524,GRANVILLE ST,Moore's,Comparison Goods,49.28405605203843,-123.1151700269459
112,2362,2020,N/A,541,GRANVILLE ST,Subway,Food & Beverage,49.28436310165463,-123.11594244835692
113,2363,2020,N/A,545,GRANVILLE ST,Smak Healthy Fast Food,Food & Beverage,49.28436310165463,-123.11594244835692
114,2367,2020,N/A,574,GRANVILLE ST,Cafe Crepe,Food & Beverage,49.28373930928332,-123.11564843483815
115,2368,2020,N/A,586,GRANVILLE ST,Shoppers Drug Mart #2277,Convenience Goods,49.28351997406178,-123.11598007755025
116,2369,2020,N/A,609,GRANVILLE ST,Meinhardt - Pacific Centre,Convenience Goods,49.28340057698826,-123.11775140601347
117,2371,2020,N/A,610,GRANVILLE ST,Steve Nash Fitness World,Entertainment and Leisure,49.28312404797613,-123.11657971526182
118,2372,2020,N/A,620,GRANVILLE ST,Yedina,Comparison Goods,49.28312404797613,-123.11657971526182
119,2375,2020,N/A,640,GRANVILLE ST,Judith & Charles,Comparison Goods,49.28312404797613,-123.11657971526182
120,2377,2020,N/A,670,GRANVILLE ST,FYI Eye Care Services,Comparison Goods,49.28312404797613,-123.11657971526182
121,2378,2020,N/A,672,GRANVILLE ST,Mego,Comparison Goods,49.28312404797613,-123.11657971526182
122,2379,2020,N/A,674,GRANVILLE ST,Topshop,Comparison Goods,49.28253253952624,-123.11699539053087
123,2382,2020,R110,725,GRANVILLE ST,AllSaints,Comparison Goods,49.28224355654455,-123.11950088594357
124,2387,2020,R128,725,GRANVILLE ST,Microsoft Canada Inc,Comparison Goods,49.28224355654455,-123.11950088594357
125,2388,2020,R130,725,GRANVILLE ST,Disney Store Canada #788,Comparison Goods,49.28224355654455,-123.11950088594357
126,2392,2020,N/A,728,GRANVILLE ST,Tom Lee Music Co Ltd,Comparison Goods,49.28182378500203,-123.11771301621158
127,2394,2020,N/A,738,GRANVILLE ST,Trees Cheesecake,Convenience Goods,49.28184606128068,-123.1185132214996
128,2395,2020,N/A,742,GRANVILLE ST,O Sushi,Food & Beverage,49.28184606128068,-123.1185132214996
129,2397,2020,N/A,756,GRANVILLE ST,Sleep Country Canada Inc,Comparison Goods,49.28151188603057,-123.11901808141587
130,2398,2020,N/A,762,GRANVILLE ST,Claire's Boutique,Comparison Goods,49.28151188603057,-123.11901808141587
131,2399,2020,N/A,766,GRANVILLE ST,The Helly Hansen Store,Comparison Goods,49.28151188603057,-123.11901808141587
132,2402,2020,N/A,796,GRANVILLE ST,Cafe Crepe,Food & Beverage,49.28151188603057,-123.11901808141587
133,2403,2020,N/A,798,GRANVILLE ST,Best Buy,Comparison Goods,49.28151188603057,-123.11901808141587
134,2409,2020,N/A,829,GRANVILLE ST,Taf's Cafe,Food & Beverage,49.281226495734586,-123.12062831986367
135,2412,2020,N/A,833,GRANVILLE ST,Vacant,Vacant,49.281177817898296,-123.12070194523105
136,2418,2020,N/A,855,GRANVILLE ST,Vacant UC,Vacant UC,49.28091005558472,-123.12110696595094
137,2426,2020,N/A,898,GRANVILLE ST,Dr. Vape Smoke & Bongs,Convenience Goods,49.28020766702466,-123.12098925058666
138,2427,2020,N/A,900,GRANVILLE ST,Dublin Calling,Food & Beverage,49.279980625649976,-123.12133012425576
139,2428,2020,N/A,901,GRANVILLE ST,Cinema Public House,Food & Beverage,49.28036767774088,-123.12192807714487
140,2431,2020,N/A,911,GRANVILLE ST,Cavo Bar & Kitchen,Food & Beverage,49.28031897389923,-123.12200168614316
141,2433,2020,N/A,921,GRANVILLE ST,Speakeasy on Granville,Food & Beverage,49.28017285311342,-123.12222249574698
142,2439,2020,N/A,957,GRANVILLE ST,The Granville Room,Food & Beverage,49.279880611176175,-123.12266410279321
143,2445,2020,N/A,982,GRANVILLE ST,7-Eleven Canada Store #35667H,Convenience Goods,49.27920229771218,-123.12250837033133
144,2451,2020,N/A,998,GRANVILLE ST,Tim Horton's,Food & Beverage,49.27920229771218,-123.12250837033133
145,2457,2020,N/A,1011,GRANVILLE ST,Frites-Fries With Benefits,Food & Beverage,49.279216167380355,-123.12366525869692
146,2461,2020,N/A,1019,GRANVILLE ST,Crave India,Food & Beverage,49.279216167380355,-123.12366525869692
147,2463,2020,N/A,1028,GRANVILLE ST,A & W Restaurant,Food & Beverage,49.27870877295325,-123.12325484307857
148,2468,2020,N/A,1049,GRANVILLE ST,The Mexican,Food & Beverage,49.27887516690173,-123.12418052750475
149,2470,2020,N/A,1051,GRANVILLE ST,Planet Rock,Convenience Goods,49.27887516690173,-123.12418052750475
150,2472,2020,N/A,1062,GRANVILLE ST,Vacant,Vacant,49.27839223097704,-123.12373343815443
151,2474,2020,N/A,1075,GRANVILLE ST,King Royal Vape Shop,Convenience Goods,49.278652154660314,-123.12451744159561
152,2479,2020,N/A,1087,GRANVILLE ST,The Templeton,Food & Beverage,49.27853628692521,-123.12469250035392
153,2481,2020,N/A,1093,GRANVILLE ST,Helen's Grocery,Convenience Goods,49.27853628692521,-123.12469250035392
154,2482,2020,N/A,1097,GRANVILLE ST,XXX Adult Superstore,Entertainment and Leisure,49.27853628692521,-123.12469250035392
155,2483,2020,N/A,1100,GRANVILLE ST,Sniki Tiki,Food & Beverage,49.277800865087826,-123.12462651617916
156,2484,2020,N/A,1105,GRANVILLE ST,8th & Main,Comparison Goods,49.2782593368807,-123.12511110984043
157,2487,2020,N/A,1129,GRANVILLE ST,I-Exit Game Downtown Inc,Entertainment and Leisure,49.2780156773963,-123.12547918768693
158,2491,2020,N/A,1143,GRANVILLE ST,Triple M Buy & Sell,Comparison Goods,49.27791833417839,-123.12562657320146
159,2497,2020,N/A,1162,GRANVILLE ST,Wings on Granville,Food & Beverage,49.27719217158125,-123.12554647438049
160,2498,2020,N/A,1163,GRANVILLE ST,Cabana,Food & Beverage,49.277723778456505,-123.12592138681967
161,2501,2020,N/A,1173,GRANVILLE ST,Mr Greek Donair Town,Food & Beverage,49.277625975244895,-123.12606856182053
162,2502,2020,N/A,1175,GRANVILLE ST,"Grade ""A"" Steak & Seafood Rest",Food & Beverage,49.277577386707215,-123.12614205159947
163,2512,2020,N/A,1230,GRANVILLE ST,Vancity Barber Shop,Service Commercial,49.27662511607424,-123.1264027864483
164,2513,2020,N/A,1250,GRANVILLE ST,Enterprise Car Rentals,Automotive Goods & Services,49.27643024317205,-123.12669707294728
165,2516,2020,1,1256,GRANVILLE ST,Lions MMA,Entertainment and Leisure,49.27633297965912,-123.12684415734178
166,2517,2020,N/A,1259,GRANVILLE ST,Future Hair Training Centre,Service Commercial,49.27669392371297,-123.12747717840762
167,2518,2020,N/A,1265,GRANVILLE ST,Plus Alpha Food & Beverages,Food & Beverage,49.27657219859618,-123.12766090944993
168,2519,2020,N/A,1275,GRANVILLE ST,Spirit of Howe Lounge (aka Mango),Food & Beverage,49.276474944450385,-123.12780817662163
169,2522,2020,N/A,1294,GRANVILLE ST,7-Eleven Store,Convenience Goods,49.275991697173836,-123.12735905319141
170,2527,2020,N/A,1348,GRANVILLE ST,Vacant,Vacant,49.27562442353768,-123.12792346365256
171,2534,2020,N/A,433,HORNBY ST,Van Cha China Tea,Food & Beverage,49.28624846916131,-123.11674914416713
172,2536,2020,N/A,490,HORNBY ST,Tim Horton's,Food & Beverage,49.286022392094274,-123.11639925073582
173,2537,2020,N/A,518,HORNBY ST,Sapporo Ramen Shogun,Food & Beverage,49.28538797281386,-123.11707921196127
174,2540,2020,N/A,581,HORNBY ST,Copper Chimney Restaurant - Indian Grill & Bar,Food & Beverage,49.285306970690435,-123.11829597773787
175,2542,2020,101,580,HORNBY ST,Brascia's Clothing For Men,Service Commercial,49.28499827079988,-123.11766865614112
176,2545,2020,N/A,608,HORNBY ST,The Printing House Ltd,Service Commercial,49.28455298585024,-123.11834207920286
177,2551,2020,N/A,763,HORNBY ST,Caffe Artigiano Inc,Food & Beverage,49.28290921907629,-123.12192341063782
178,2561,2020,N/A,851,HORNBY ST,Aube Hair Salon,Service Commercial,49.28205532648003,-123.12321346155849
179,2566,2020,N/A,869,HORNBY ST,Boston Pizza,Food & Beverage,49.28205532648003,-123.12321346155849
180,2567,2020,N/A,905,HORNBY ST,Earls Restaurants (Hornby) Ltd,Food & Beverage,49.28157566920938,-123.12420172466877
181,2570,2020,N/A,947,HORNBY ST,Tim Horton's,Food & Beverage,49.28157566920938,-123.12420172466877
182,2584,2020,101,1001,HORNBY ST,Wall Flowers,Convenience Goods,49.280609435042415,-123.1258113527963
183,2587,2020,N/A,1010,HORNBY ST,Royal Bank,Service Commercial,49.27999824442466,-123.12484476801036
184,2590,2020,N/A,1062,HORNBY ST,Femme Free Showroom,Comparison Goods,49.27962630605496,-123.12579048867782
185,2591,2020,N/A,1064,HORNBY ST,Souzan Chi Tailoring & Alterations,Service Commercial,49.27962630605496,-123.12579048867782
186,2592,2020,N/A,1065,HORNBY ST,Wall Centre Dental,Service Commercial,49.280147180176,-123.12651056901292
187,2599,2020,N/A,1088,HORNBY ST,Salon Origins,Service Commercial,49.27962630605496,-123.12579048867782
188,2600,2020,N/A,1090,HORNBY ST,Jeweliette Jewelry,Comparison Goods,49.27962630605496,-123.12579048867782
189,2608,2020,N/A,1318,HORNBY ST,Barrette Salon,Service Commercial,49.27702579132671,-123.12972314778992
190,2613,2020,N/A,1351,HORNBY ST,Anchor Point Montessori,Service Commercial,49.277089947146365,-123.13077936544705
191,2615,2020,3,1353,HORNBY ST,Little Spa,Service Commercial,49.277089947146365,-123.13077936544705
192,2618,2020,N/A,1359,HORNBY ST,Reckless Bikes,Comparison Goods,49.277089947146365,-123.13077936544705
193,2624,2020,N/A,329,HOWE ST,Crest Jewellers,Comparison Goods,49.28653182643322,-123.11434780337117
194,2629,2020,N/A,410,HOWE ST,Bang and Olufsen,Comparison Goods,49.285665992365765,-123.11501515891854
195,2632,2020,N/A,455,HOWE ST,Lindt Chocolates,Convenience Goods,49.28569705296556,-123.11589626720881
196,2633,2020,N/A,456,HOWE ST,Cartier,Comparison Goods,49.2853928770122,-123.11542776726155
197,2642,2020,100,555,HOWE ST,International Arts Gallery,Comparison Goods,49.28482598898185,-123.11710457526705
198,2643,2020,N/A,565,HOWE ST,Feuille Luxury,Comparison Goods,49.284777312213876,-123.11717850646785
199,2646,2020,103,595,HOWE ST,DHL Express,Service Commercial,49.28460668985421,-123.11743646089614
200,2651,2020,110,840,HOWE ST,Smak - Healthy Fast Food,Food & Beverage,49.28109973566644,-123.12164510536734
201,2653,2020,170,840,HOWE ST,Lure Salon Inc,Service Commercial,49.28109973566644,-123.12164510536734
202,2655,2020,100,938,HOWE ST,BC Alliance for Arts and Culture,Service Commercial,49.2803207120504,-123.12282334663986
203,2656,2020,100,948,HOWE ST,The Red Room Hair World Ltd,Service Commercial,49.28019897343837,-123.12300735003949
204,2657,2020,100,948,HOWE ST,Vancouver Green Spa Ltd,Service Commercial,49.28019897343837,-123.12300735003949
205,2659,2020,N/A,988,HOWE ST,Pallet Coffee Roasters Inc,Food & Beverage,49.279979835072155,-123.12333857805436
206,2668,2020,N/A,1075,HOWE ST,iNail Spa,Service Commercial,49.279259416847054,-123.12552001521188
207,2669,2020,N/A,1085,HOWE ST,Canaan Transport,Service Commercial,49.279259416847054,-123.12552001521188
208,2671,2020,N/A,1095,HOWE ST,Starbucks Coffee,Food & Beverage,49.279259416847054,-123.12552001521188
209,2673,2020,202,1125,HOWE ST,Animism Studios Inc,Comparison Goods,49.27876548878274,-123.12626626114388
210,2677,2020,N/A,1197,HOWE ST,Pure Float Ltd,Service Commercial,49.2783027028566,-123.12696559832357
211,2678,2020,N/A,1214,HOWE ST,Steve Nash Fitness World,Entertainment and Leisure,49.27735324868997,-123.12730553863715
212,2680,2020,N/A,1282,HOWE ST,The Ammerose Spa & Salon,Service Commercial,49.27676891479766,-123.12818861008408
213,2684,2020,N/A,1291,HOWE ST,Freshii,Food & Beverage,49.27720128513876,-123.1286333145039
214,2689,2020,N/A,898,W PENDER ST,VanCity,Service Commercial,49.28565873619095,-123.11694626312621
215,2692,2020,N/A,330,ROBSON ST,Stella Nails Ltd,Service Commercial,49.27880509195092,-123.11652159554393
216,2695,2020,103,345,ROBSON ST,ABC Store,Comparison Goods,49.27970996870013,-123.11556576452458
217,2696,2020,104,345,ROBSON ST,Salad Loop,Food & Beverage,49.27970996870013,-123.11556576452458
218,2697,2020,105,345,ROBSON ST,Robson Barbers,Service Commercial,49.27970996870013,-123.11556576452458
219,2699,2020,202,345,ROBSON ST,Sushi Sonoya,Food & Beverage,49.27970996870013,-123.11556576452458
220,2703,2020,207,345,ROBSON ST,Flying Wedge Pizza,Food & Beverage,49.27970996870013,-123.11556576452458
221,2712,2020,N/A,386,ROBSON ST,Gong Cha,Food & Beverage,49.27904546166031,-123.1169831999752
222,2715,2020,N/A,410,ROBSON ST,Blanche MacDonald Centre,Service Commercial,49.27935527828619,-123.11761051036932
223,2718,2020,N/A,428,ROBSON ST,Body Energy Club Gastown,Convenience Goods,49.27935527828619,-123.11761051036932
224,2723,2020,N/A,450,ROBSON ST,A&W Restaurant,Food & Beverage,49.27935527828619,-123.11761051036932
225,2724,2020,N/A,463,ROBSON ST,Tim Hortons,Food & Beverage,49.28027859562197,-123.11703931806129
226,2725,2020,N/A,481,ROBSON ST,Fido,Service Commercial,49.28027859562197,-123.11703931806129
227,2729,2020,N/A,498,ROBSON ST,Starbucks Coffee Canada Inc,Food & Beverage,49.279746706821406,-123.11784309162361
228,2735,2020,N/A,542,ROBSON ST,Curry Fusion,Food & Beverage,49.28018487880979,-123.11827660665111
229,2736,2020,N/A,547,ROBSON ST,Tractor Foods (Robson) Corp,Food & Beverage,49.28055303595439,-123.11772283768464
230,2738,2020,N/A,555,ROBSON ST,Vitasave,Convenience Goods,49.28099095405684,-123.11788569875891
231,2740,2020,N/A,568,ROBSON ST,Sejong Hair Salon,Service Commercial,49.28032623471016,-123.118887314599
232,2743,2020,200,590,ROBSON ST,H Mart,Convenience Goods,49.28032623471016,-123.118887314599
233,2748,2020,N/A,625,ROBSON ST,Meat and Bread Robson,Food & Beverage,49.28112030710885,-123.11878545054934
234,2752,2020,N/A,681,ROBSON ST,LIDS,Comparison Goods,49.28151188603057,-123.11901808141587
235,2753,2020,N/A,708,ROBSON ST,Old Navy #4218,Comparison Goods,49.281389459498214,-123.1203817229282
236,2755,2020,N/A,778,ROBSON ST,A&W Restaurant (778 Robson),Food & Beverage,49.28155542829917,-123.12095572491346
237,2758,2020,N/A,908,ROBSON ST,Mac Cosmetics,Convenience Goods,49.282583975934806,-123.12241435870227
238,2762,2020,N/A,948,ROBSON ST,Escents Aromatherapy,Convenience Goods,49.282583975934806,-123.12241435870227
239,2764,2020,N/A,961,ROBSON ST,Clearly,Comparison Goods,49.2833530087563,-123.12207755176016
240,2766,2020,N/A,508,W HASTINGS ST,Blenz Coffee West Hastings,Food & Beverage,49.284031891265165,-123.11249062465407
241,2768,2020,102,550,W HASTINGS ST,Tiamo's Gift And Smoke,Comparison Goods,49.28413194971469,-123.11264787411476
242,2769,2020,N/A,550,W HASTINGS ST,Pholicious,Food & Beverage,49.28413194971469,-123.11264787411476
243,2770,2020,N/A,550,W HASTINGS ST,Stock and Supply,Food & Beverage,49.28413194971469,-123.11264787411476
244,2785,2020,L10,555,W HASTINGS ST,Dollarama,Comparison Goods,49.28468294804889,-123.11188882128488
245,2797,2020,U6,555,W HASTINGS ST,Tim Horton's,Food & Beverage,49.28468294804889,-123.11188882128488
246,2804,2020,N/A,688,W HASTINGS ST,Teaever,Food & Beverage,49.28501052418328,-123.11400290966166
247,2810,2020,226,757,W HASTINGS ST,The Perfume Shoppe,Convenience Goods,49.285963829799556,-123.11387156489181
248,2812,2020,230,757,W HASTINGS ST,Diamond Deals Jewellery Inc,Comparison Goods,49.285963829799556,-123.11387156489181
249,2820,2020,N/A,809,W HASTINGS ST,Sir Barber Shop,Service Commercial,49.28633727963352,-123.11486311134117
250,2826,2020,N/A,863,W HASTINGS ST,Mink A Chocolate Cafe,Food & Beverage,49.28678605549069,-123.11488250875561
251,2827,2020,N/A,900,W HASTINGS ST,Palladio,Comparison Goods,49.28662126224258,-123.11649163447863
252,2830,2020,100,1066,W HASTINGS ST,Glory Juice Co Vancouver Ltd,Convenience Goods,49.28737275602466,-123.11885326415198
253,2831,2020,150,1066,W HASTINGS ST,Colourtime Printing & Digital,Service Commercial,49.28737275602466,-123.11885326415198
254,2838,2020,N/A,1152,W HASTINGS ST,Magnolia Regeneration Skin/,Service Commercial,49.28795342814009,-123.12082069746613
255,2842,2020,N/A,505,W PENDER ST,We Drink Corporation,Food & Beverage,49.28388505043413,-123.11309699323725
256,2848,2020,N/A,525,W PENDER ST,Gastown Collectable Inc,Service Commercial,49.28388505043413,-123.11309699323725
257,2849,2020,N/A,526,W PENDER ST,Alma Bridal,Comparison Goods,49.2835482120835,-123.11368421014434
258,2850,2020,N/A,529,W PENDER ST,Sandwich Garden,Food & Beverage,49.28388505043413,-123.11309699323725
259,2859,2020,N/A,589,W PENDER ST,Me And Crepe,Food & Beverage,49.28388505043413,-123.11309699323725
260,2866,2020,N/A,621,W PENDER ST,Digitech Printing Inc,Service Commercial,49.28441229588627,-123.11391240588635
261,2868,2020,N/A,655,W PENDER ST,CoCo Fresh Tea & Juice,Food & Beverage,49.28473749608962,-123.11441549633143
262,2869,2020,N/A,700,W PENDER ST,Starbucks Coffee,Food & Beverage,49.28480509813502,-123.11562761200568
263,2872,2020,N/A,779,W PENDER ST,Poliform Furniture,Comparison Goods,49.2853928770122,-123.11542776726155
264,2874,2020,N/A,800,W PENDER ST,Vancouver Coin & Stamp Ltd,Comparison Goods,49.28540848191182,-123.11655947926273
265,2878,2020,N/A,905,W PENDER ST,Poly Art Centre North America,Comparison Goods,49.28624846916131,-123.11674914416713
266,2879,2020,N/A,911,W PENDER ST,Vacant,Vacant,49.28634855822277,-123.1169041597233
267,2880,2020,N/A,1033,W PENDER ST,Meat & Bread,Food & Beverage,49.28737275602466,-123.11885326415198
268,2881,2020,N/A,1050,W PENDER ST,Quizno's Classic Subs,Food & Beverage,49.28689055355124,-123.11961277708713
269,2886,2020,N/A,1050,W PENDER ST,Liquid Assets Coffee Bar (Koffie),Food & Beverage,49.28689055355124,-123.11961277708713
270,2889,2020,N/A,1095,W PENDER ST,Starbucks Coffee,Food & Beverage,49.28761669617799,-123.11972621071773
271,2894,2020,N/A,1129,W PENDER ST,Ka! Boom Hair Company,Service Commercial,49.28795342814009,-123.12082069746613
272,2900,2020,N/A,1140,W PENDER ST,Symphonie Restaurant,Food & Beverage,49.28761787244076,-123.12207959113464
273,2901,2020,N/A,1155,W PENDER ST,O K Gift Shop Ltd,Comparison Goods,49.28819981493913,-123.12167613279226
274,2906,2020,N/A,1202,W PENDER ST,Shoppers Drug Mart #2275,Convenience Goods,49.28833315463051,-123.12427375808659
275,2922,2020,N/A,3502,E HASTINGS ST,7-Eleven Store,Convenience Goods,49.28086467269992,-123.02777000334461
276,2924,2020,N/A,3519,E HASTINGS ST,Viti Hastings,Convenience Goods,49.28141304560047,-123.02783746001823
277,2928,2020,N/A,3536,E HASTINGS ST,OG Cannabis,Convenience Goods,49.28086428044418,-123.02735546379395
278,2936,2020,N/A,3590,E HASTINGS ST,Dial A Style Barbershop,Service Commercial,49.28086318863645,-123.02624933248893
279,2937,2020,N/A,3594,E HASTINGS ST,Kings Menswear & Tuxedo,Comparison Goods,49.28086318863645,-123.02624933248893
280,2941,2020,N/A,3601,E HASTINGS ST,In The Moment Coffee Ltd,Food & Beverage,49.28140750263199,-123.02521261407756
281,2944,2020,N/A,3615,E HASTINGS ST,Van Mist Vapor Co.,Convenience Goods,49.28140750263199,-123.02521261407756
282,2946,2020,N/A,3619,E HASTINGS ST,Vacant,Vacant,49.28140750263199,-123.02521261407756
283,2951,2020,N/A,3642,E HASTINGS ST,Print & Save Signs,Service Commercial,49.28086183134657,-123.02470686759577
284,2952,2020,N/A,3660,E HASTINGS ST,Rumi's Rose Garden Inc,Food & Beverage,49.280861634338905,-123.02443620204981
285,2954,2020,N/A,3668,E HASTINGS ST,Vacant,Vacant,49.28086150640184,-123.02407723918378
286,2958,2020,N/A,3675,E HASTINGS ST,The Rustic Llama Coffee Bar,Food & Beverage,49.281403978109545,-123.02435810163148
287,2961,2020,N/A,3685,E HASTINGS ST,Strive Studio,Entertainment and Leisure,49.281403978109545,-123.02435810163148
288,2965,2020,N/A,645,E 16TH AV,Dierks Equipment Sales Ltd,Comparison Goods,49.25664217581425,-123.09107718036176
289,2966,2020,N/A,3201,FRASER ST,BKH Jerky Ltd.,Convenience Goods,49.25627424268088,-123.09033356551289
290,2978,2020,N/A,3320,FRASER ST,Vacant,Vacant,49.25521510724371,-123.08944657836872
291,2983,2020,N/A,3353,FRASER ST,Long Tou Beauty Salon,Service Commercial,49.25523033444322,-123.09037233770884
292,2987,2020,N/A,3373,FRASER ST,Remedy Rx,Convenience Goods,49.2548685011674,-123.0903857560168
293,2989,2020,N/A,3377,FRASER ST,Sanitary Electric Tattoo,Service Commercial,49.2548685011674,-123.0903857560168
294,2990,2020,N/A,3379,FRASER ST,Ground Control Electronics,Comparison Goods,49.2548685011674,-123.0903857560168
295,2994,2020,N/A,3455,FRASER ST,Jethro's Fine Grub,Food & Beverage,49.25410902369566,-123.09041371120979
296,2996,2020,N/A,3461,FRASER ST,Wonder Meatball,Food & Beverage,49.25410902369566,-123.09041371120979
297,3010,2020,N/A,3580,FRASER ST,Mei Hair Studio,Service Commercial,49.253111042166545,-123.0894923196542
298,3011,2020,N/A,3586,FRASER ST,Fairy Cakes,Convenience Goods,49.253111042166545,-123.0894923196542
299,3018,2020,15,701,KINGSWAY,Alenka European Food,Convenience Goods,49.256834759632866,-123.08937842765663
300,3023,2020,N/A,3904,FRASER ST,The Beehive Hair Lounge,Service Commercial,49.24995102852769,-123.08964594775071
301,3024,2020,N/A,3905,FRASER ST,PLEA,Service Commercial,49.24996631429456,-123.09057068406761
302,3025,2020,N/A,3911,FRASER ST,Dr. Chris Macasiray Dental Clinic,Service Commercial,49.24986676934629,-123.09057434389946
303,3027,2020,N/A,3916,FRASER ST,Good Sushi,Food & Beverage,49.24984555718816,-123.08965007826374
304,3028,2020,N/A,3925,FRASER ST,Vancouver Table Tennis Club,Service Commercial,49.249659021393306,-123.0905818482948
305,3031,2020,N/A,3958,FRASER ST,Batard Bakery,Convenience Goods,49.24954398038785,-123.08966182189916
306,3032,2020,N/A,3975,FRASER ST,Eclipse Productions,Service Commercial,49.249514420625104,-123.09058731774488
307,3033,2020,N/A,3979,FRASER ST,Vacant,Vacant,49.249514420625104,-123.09058731774488
308,3035,2020,N/A,3992,FRASER ST,Earnest Ice Cream,Convenience Goods,49.24933842869901,-123.08966986581738
309,3036,2020,N/A,3994,FRASER ST,Vancouver Performing Stars,Entertainment and Leisure,49.24933842869901,-123.08966986581738
310,3039,2020,N/A,4064,FRASER ST,7-Eleven,Convenience Goods,49.24892742011404,-123.08968779898385
311,3051,2020,N/A,4131,FRASER ST,Lee's Electronic,Comparison Goods,49.24810607869618,-123.09054075287517
312,3054,2020,N/A,4152,FRASER ST,Goyal Travels Inc.,Service Commercial,49.24810566747246,-123.08976514006477
313,3057,2020,N/A,4169,FRASER ST,Vacant,Vacant,49.24793381819422,-123.09054541186225
314,3058,2020,N/A,4170,FRASER ST,Fraser Crossing Wellness,Service Commercial,49.247920496799466,-123.0897492792413
315,3059,2020,N/A,4171,FRASER ST,Happy Cat Feline Essentials,Comparison Goods,49.24793381819422,-123.09054541186225
316,3061,2020,N/A,4179,FRASER ST,Century Printing,Service Commercial,49.24784757077621,-123.09054803104885
317,3062,2020,N/A,4181,FRASER ST,Grand View Restaurant,Food & Beverage,49.24784757077621,-123.09054803104885
318,3064,2020,N/A,4190,FRASER ST,Dr. Fen Lui,Service Commercial,49.247721749286704,-123.08977552691512
319,3065,2020,N/A,4194,FRASER ST,Ubuntu Canteen,Food & Beverage,49.247721749286704,-123.08977552691512
320,3069,2020,N/A,4209,FRASER ST,Centricare Medical Clinic,Service Commercial,49.24745615235495,-123.09057323740863
321,3076,2020,N/A,4242,FRASER ST,Mountain View Adult Day Program,Service Commercial,49.24707974385959,-123.08981438900472
322,3077,2020,N/A,4245,FRASER ST,Egg & Co.,Food & Beverage,49.24717268409656,-123.0905809491894
323,3078,2020,N/A,4253,FRASER ST,Aling Ening Restaurant,Food & Beverage,49.24703572994076,-123.09058434250932
324,3080,2020,N/A,4259,FRASER ST,The Kings Way Church,Comparison Goods,49.24703572994076,-123.09058434250932
325,3084,2020,N/A,4275,FRASER ST,Showcity Beauty Salon,Service Commercial,49.24689877446084,-123.09058827304185
326,3085,2020,N/A,4279,FRASER ST,Pampanga's Best Café,Food & Beverage,49.24689877446084,-123.09058827304185
327,3086,2020,N/A,4286,FRASER ST,Polonus Old Country Sausage,Convenience Goods,49.24678907927723,-123.08982232147724
328,3087,2020,N/A,4287,FRASER ST,JJ Bean,Food & Beverage,49.24676182389211,-123.09059167182632
329,3088,2020,N/A,4288,FRASER ST,Golden Joy,Food & Beverage,49.24678907927723,-123.08982232147724
330,3097,2020,N/A,4321,FRASER ST,Vacant,Vacant,49.246318910518625,-123.09059720381865
331,3106,2020,N/A,4352,FRASER ST,Global AV Services,Comparison Goods,49.24601089973533,-123.08980175121353
332,3107,2020,N/A,4354,FRASER ST,Noor Mahal Restaurant,Food & Beverage,49.24601089973533,-123.08980175121353
333,3111,2020,N/A,4376,FRASER ST,Masayoshi,Food & Beverage,49.245830543285905,-123.08980667406918
334,3115,2020,N/A,4388,FRASER ST,Vacant,Vacant,49.24564984789028,-123.08981136544921
335,3119,2020,N/A,4588,FRASER ST,Starbucks,Food & Beverage,49.24431518257406,-123.08948575749922
336,3120,2020,N/A,4590,FRASER ST,Shoppers,Convenience Goods,49.24431518257406,-123.08948575749922
337,3125,2020,N/A,212,ABBOTT ST,The Clough Club,Food & Beverage,49.28355954025713,-123.10623290804399
338,3134,2020,N/A,238,ABBOTT ST,Revel Room Supper Club,Food & Beverage,49.28315514326997,-123.10641864956357
339,3152,2020,N/A,307,CAMBIE ST,Ollie Quinn,Comparison Goods,49.2835017466451,-123.10964715253762
340,3156,2020,N/A,325,CAMBIE ST,Revolver Coffee,Food & Beverage,49.28323240144836,-123.10950293167366
341,3162,2020,N/A,206,CARRALL ST,Royal Vape Inc,Convenience Goods,49.28299581940898,-123.10389360967358
342,3165,2020,N/A,217,CARRALL ST,L'Abattoir Restaurant,Food & Beverage,49.283247754858245,-123.10459614240192
343,3171,2020,N/A,315,CARRALL ST,Nelson the Seagull Cafe,Food & Beverage,49.28223381978755,-123.10459187356867
344,3178,2020,130,1,E CORDOVA ST,Omnicare Pharmacy Ltd,Convenience Goods,49.282581582775656,-123.10369409195852
345,3181,2020,N/A,26,E CORDOVA ST,Archetype Custom,Service Commercial,49.28211284756346,-123.10375139025919
346,3183,2020,N/A,45,E CORDOVA ST,AVA Technologies Inc,Service Commercial,49.28259344523479,-123.1028995858652
347,3189,2020,N/A,8,POWELL ST,Sitar Restaurant,Food & Beverage,49.28311883498695,-123.10388832134419
348,3190,2020,N/A,26,POWELL ST,Sardine Can,Food & Beverage,49.283003666924756,-123.10346639541751
349,3203,2020,N/A,27,TROUNCE ALLEY,Gringo Restaurant,Food & Beverage,49.283388371087675,-123.10529434222579
350,3206,2020,N/A,8,W CORDOVA ST,Army & Navy Department Stores,Comparison Goods,49.28244173538996,-123.10564572411337
351,3214,2020,N/A,65,W CORDOVA ST,Adrienne Smith Law,Service Commercial,49.28307415705173,-123.10601738686631
352,3216,2020,N/A,70,W CORDOVA ST,Gastown Float House Center,Entertainment and Leisure,49.28255902098188,-123.10628702470886
353,3220,2020,N/A,105,W CORDOVA ST,Gastown Tattoo Parlour,Service Commercial,49.2831473212628,-123.10699509540994
354,3225,2020,N/A,305,W CORDOVA ST,Colourbox Hair,Service Commercial,49.284024758307446,-123.10963690494845
355,3227,2020,N/A,315,W CORDOVA ST,Durant Sessions,Comparison Goods,49.284024758307446,-123.10963690494845
356,3228,2020,N/A,316,W CORDOVA ST,Frank and Oak,Comparison Goods,49.28359778635055,-123.1097949131346
357,3231,2020,N/A,321,W CORDOVA ST,Out & About Boutique Inc,Comparison Goods,49.284024758307446,-123.10963690494845
358,3239,2020,N/A,403,W CORDOVA ST,Rocket Reprographics Inc,Service Commercial,49.284322267809195,-123.10995076930779
359,3240,2020,N/A,422,W CORDOVA ST,Heathers The Flowershop,Convenience Goods,49.28419094151,-123.11071235490911
360,3243,2020,N/A,452,W CORDOVA ST,L'Atelier Home Ltd,Comparison Goods,49.28419094151,-123.11071235490911
361,3245,2020,N/A,486,W CORDOVA ST,E:CLE,Comparison Goods,49.28419094151,-123.11071235490911
362,3248,2020,N/A,8,WATER ST,Roden Gray Inc,Comparison Goods,49.283247754858245,-123.10459614240192
363,3257,2020,N/A,47,WATER ST,Filson,Comparison Goods,49.28390247952865,-123.1049383288338
364,3258,2020,N/A,50,WATER ST,Inform Interiors (2000) Inc,Comparison Goods,49.28346230240305,-123.10569931474713
365,3262,2020,N/A,68,WATER ST,World Wrap Place,Food & Beverage,49.28351101473291,-123.10596660771373
366,3264,2020,N/A,97,WATER ST,Inform Interiors (2000) Inc,Comparison Goods,49.28409667799142,-123.10600382252474
367,3268,2020,N/A,131,WATER ST,131 Water Kitchan and Bar,Food & Beverage,49.28429077875637,-123.10706900949596
368,3271,2020,N/A,117,WATER ST,Prado Cafe Ltd,Food & Beverage,49.28429077875637,-123.10706900949596
369,3276,2020,201,131,WATER ST,La Differencia,Comparison Goods,49.28429077875637,-123.10706900949596
370,3277,2020,121,131,WATER ST,Poppy And Rye,Comparison Goods,49.28429077875637,-123.10706900949596
371,3280,2020,N/A,141,WATER ST,Vacant,Vacant,49.28438781232718,-123.10760169408579
372,3282,2020,N/A,155,WATER ST,Vacant UC,Vacant UC,49.28444845851551,-123.10793463006442
373,3285,2020,N/A,165,WATER ST,Kit and Ace Technical Apparel,Comparison Goods,49.284496976755634,-123.10820097723851
374,3288,2020,N/A,199,WATER ST,Starbucks Coffee,Food & Beverage,49.28454549617492,-123.10846733043846
375,3290,2020,N/A,305,WATER ST,The Latest Scoop,Comparison Goods,49.28458904296333,-123.10889266146503
376,3310,2020,N/A,355,WATER ST,Oak and Fort,Comparison Goods,49.28481001030406,-123.11001607556618
377,3311,2020,N/A,356,WATER ST,BURO,Food & Beverage,49.28445387502295,-123.11028331734407
378,3312,2020,N/A,359,WATER ST,Gifts and Things - Smiley's Enterprises,Comparison Goods,49.28481001030406,-123.11001607556618
379,3320,2020,N/A,375,WATER ST,Steamworks,Food & Beverage,49.28497089887051,-123.11083218131641
380,3328,2020,N/A,418,ABBOTT ST,Pacific Oak Clinic Inc,Service Commercial,49.28169324468026,-123.10712227143897
381,3329,2020,N/A,420,ABBOTT ST,Wellness Pharmacy No. 8,Convenience Goods,49.28169324468026,-123.10712227143897
382,3340,2020,N/A,320,CAMBIE ST,Vacant,Vacant,49.28308505732642,-123.10901441867483
383,3343,2020,N/A,360,CAMBIE ST,Fresh Bowl Foods Ltd,Food & Beverage,49.28259395309091,-123.10913735467828
384,3344,2020,N/A,370,CAMBIE ST,Meat and Bread Cambie,Food & Beverage,49.28259395309091,-123.10913735467828
385,3350,2020,N/A,12,E HASTINGS ST,Portland Community Dental Clinic,Service Commercial,49.281112354746845,-123.10392420408512
386,3355,2020,N/A,45,E HASTINGS ST,The Hub Clothing Store,Comparison Goods,49.2817072618918,-123.10332308884962
387,3357,2020,108,50,E HASTINGS ST,50 Cents Convenience Store,Convenience Goods,49.281096540909274,-123.10308704879318
388,3358,2020,N/A,52,E HASTINGS ST,Vacant,Vacant,49.28109460986452,-123.10298289657425
389,3364,2020,N/A,92,E HASTINGS ST,Pigeon Park Savings,Service Commercial,49.28108678073587,-123.10256388552872
390,3371,2020,N/A,110,E HASTINGS ST,Vacant,Vacant,49.28107389079874,-123.1018691913116
391,3378,2020,N/A,139,E HASTINGS ST,Insite Coffee,Service Commercial,49.28166965764753,-123.1013187416397
392,3384,2020,N/A,151,E HASTINGS ST,Real Compassion Society,Convenience Goods,49.28166385915374,-123.10100456563018
393,3387,2020,N/A,163,E HASTINGS ST,Vacant,Vacant,49.281658050519646,-123.10068969119254
394,3393,2020,N/A,199,E HASTINGS ST,Owl Drugs,Convenience Goods,49.28152353781422,-123.10009923224528
395,3401,2020,N/A,203,MAIN ST,No 5 Orange St Hotel,Food & Beverage,49.282985333727986,-123.10003521616134
396,3404,2020,N/A,223,MAIN ST,Pier Health Resource Centre Ltd,Convenience Goods,49.282779898505545,-123.10004434169325
397,3406,2020,N/A,235,MAIN ST,Vacant,Vacant,49.2826432740302,-123.10004993789028
398,3410,2020,N/A,249,MAIN ST,Main Mini Mart,Convenience Goods,49.28242782164916,-123.10005919840596
399,3411,2020,N/A,305,MAIN ST,Waves Coffee House,Food & Beverage,49.28215930543997,-123.1000709666783
400,3413,2020,N/A,309,MAIN ST,Vacant,Vacant,49.28208126837037,-123.10007444420646
401,3416,2020,N/A,384,MAIN ST,The Aboriginal Front Door Society,Service Commercial,49.28168052745732,-123.09917867860956
402,3420,2020,N/A,434,RICHARDS ST,Do Da Antiques,Comparison Goods,49.28341378148091,-123.11250268961521
403,3424,2020,N/A,126,W CORDOVA ST,W Dental,Service Commercial,49.2826404694755,-123.10789253900161
404,3425,2020,N/A,136,W CORDOVA ST,The GPO Bar and Kitchen,Food & Beverage,49.2826404694755,-123.10789253900161
405,3427,2020,N/A,146,W CORDOVA ST,JJ Bean,Food & Beverage,49.2826404694755,-123.10789253900161
406,3429,2020,N/A,11,W HASTINGS ST,Community Thrift & Vintage,Comparison Goods,49.28189498967937,-123.10500917821923
407,3430,2020,N/A,16,W HASTINGS ST,Vacant,Vacant,49.281413173276924,-123.10517292589796
408,3437,2020,N/A,47,W HASTINGS ST,Balila Taste Kitchen,Food & Beverage,49.28212675471318,-123.10628154313827
409,3441,2020,N/A,74,W HASTINGS ST,Grand Union Hotel Bar,Food & Beverage,49.281652909696305,-123.10690049730778
410,3444,2020,N/A,100,W HASTINGS ST,Prado Cafe,Food & Beverage,49.28177761001151,-123.10758651520523
411,3447,2020,N/A,108,W HASTINGS ST,Noodlebox Gastown,Food & Beverage,49.281796530834754,-123.10768944657018
412,3451,2020,N/A,120,W HASTINGS ST,Wildebeest Restaurant,Food & Beverage,49.28185152019461,-123.10799204852964
413,3452,2020,N/A,122,W HASTINGS ST,Catch 122,Food & Beverage,49.28192490264458,-123.10839576144855
414,3455,2020,N/A,130,W HASTINGS ST,All City Athletics Ltd,Entertainment and Leisure,49.28192490264458,-123.10839576144855
415,3456,2020,N/A,134,W HASTINGS ST,Money Mart,Service Commercial,49.28194284597186,-123.10849666870224
416,3457,2020,N/A,139,W HASTINGS ST,Subway,Food & Beverage,49.2826404694755,-123.10789253900161
417,3458,2020,N/A,140,W HASTINGS ST,Structube,Comparison Goods,49.28197972889595,-123.10869862311651
418,3469,2020,N/A,166,W HASTINGS ST,Victory Food Market,Convenience Goods,49.28208977439603,-123.10930382684634
419,3471,2020,217,207,W HASTINGS ST,Cavalier,Comparison Goods,49.28298815002344,-123.1096869503132
420,3479,2020,N/A,322,W HASTINGS ST,La Taqueria Taco Shop Ltd,Food & Beverage,49.28292570590021,-123.11078127118812
421,3480,2020,N/A,324,W HASTINGS ST,Venus&Mars,Comparison Goods,49.28292570590021,-123.11078127118812
422,3481,2020,N/A,330,W HASTINGS ST,Atex Fabrics,Comparison Goods,49.28292570590021,-123.11078127118812
423,3482,2020,N/A,337,W HASTINGS ST,Dressew Supply Ltd,Comparison Goods,49.283372628934906,-123.11028053204636
424,3485,2020,N/A,399,W HASTINGS ST,Lit City,Comparison Goods,49.283516679902476,-123.11050323041638
425,3486,2020,N/A,400,W HASTINGS ST,Vancouver Film School Ltd,Service Commercial,49.283354669075926,-123.11144322741366
426,3488,2020,N/A,411,W HASTINGS ST,VGC International College,Service Commercial,49.28384311211485,-123.11100811398497
427,3489,2020,N/A,412,W HASTINGS ST,Academie Duello Ltd,Service Commercial,49.28345489592479,-123.11159804195414
428,3490,2020,N/A,419,W HASTINGS ST,Mott Electric Corp,Comparison Goods,49.28391820102865,-123.11112426879248
429,3492,2020,N/A,432,W HASTINGS ST,Dimensions Art Gallery Inc,Comparison Goods,49.28365245417494,-123.11190320580432
430,3494,2020,N/A,437,W HASTINGS ST,Lagree West Fitness Ltd,Entertainment and Leisure,49.28399342094849,-123.11124063737715
431,3497,2020,N/A,450,W HASTINGS ST,My Convenience Store,Convenience Goods,49.28375556622257,-123.11206248519535
432,3499,2020,N/A,475,W HASTINGS ST,Mr Big & Tall,Comparison Goods,49.28414364310703,-123.11147300523479
433,3500,2020,N/A,492,W HASTINGS ST,Waves Coffee House,Food & Beverage,49.28375556622257,-123.11206248519535
434,3502,2020,110,27,W PENDER ST,The Three Point Tattoo,Service Commercial,49.281052200697225,-123.10572357248077
435,3505,2020,N/A,81,W PENDER ST,Printprint,Service Commercial,49.28125017622256,-123.10687571224042
436,3509,2020,1,119,W PENDER ST,JK Hair Salon,Service Commercial,49.28148135124494,-123.10814913225167
437,3510,2020,N/A,123,W PENDER ST,Steamworks Men's Gym/Sauna,Entertainment and Leisure,49.28148135124494,-123.10814913225167
438,3516,2020,N/A,300,W PENDER ST,Major Interiors Inc,Comparison Goods,49.28209028234806,-123.11143157831933
439,3517,2020,N/A,301,W PENDER ST,Avenue Road,Comparison Goods,49.282427555489775,-123.11084530758484
440,3523,2020,N/A,334,W PENDER ST,Hunter & Hare,Comparison Goods,49.282491191873994,-123.11205120793085
441,3524,2020,N/A,335,W PENDER ST,Social Crust Cafe & Catering,Food & Beverage,49.282703218132966,-123.11127108700164
442,3525,2020,N/A,336,W PENDER ST,Morrow,Comparison Goods,49.282491191873994,-123.11205120793085
443,3530,2020,N/A,350,W PENDER ST,Autosrada Downtown,Food & Beverage,49.282491191873994,-123.11205120793085
444,3532,2020,N/A,414,W PENDER ST,Vacant,Vacant,49.28281972106733,-123.11255823138202
445,3535,2020,N/A,424,W PENDER ST,Vacant,Vacant,49.28289488490183,-123.11267437943347
446,3536,2020,N/A,430,W PENDER ST,Ha Long Bay Restaurant,Food & Beverage,49.28297005133437,-123.11279050996913
447,3545,2020,N/A,1927,E HASTINGS ST,Edge Kitchen,Food & Beverage,49.28147574326557,-123.06491077883294
448,3546,2020,N/A,1943,E HASTINGS ST,All Star Group,Service Commercial,49.28147480807554,-123.06470333212077
449,3549,2020,N/A,1967,E HASTINGS ST,United Collision Auto Repair,Automotive Goods & Services,49.28146225055125,-123.06408720520668
450,3550,2020,N/A,1979,E HASTINGS ST,Strathcona Pharmacy,Convenience Goods,49.28146225055125,-123.06408720520668
451,3552,2020,N/A,1991,E HASTINGS ST,Volcano Sushi & Grill,Food & Beverage,49.28146225055125,-123.06408720520668
452,3555,2020,N/A,2010,E HASTINGS ST,On Lok Restaurant & Won Ton,Food & Beverage,49.28092533321313,-123.06340021343391
453,3556,2020,N/A,2032,E HASTINGS ST,Vacant,Vacant,49.280923313115075,-123.0629853190035
454,3560,2020,N/A,2070,E HASTINGS ST,Yan Bakery,Convenience Goods,49.28092104136031,-123.06257061128133
455,3561,2020,N/A,2076,E HASTINGS ST,Lur Victoria Laundry,Service Commercial,49.28092104136031,-123.06257061128133
456,3568,2020,N/A,2112,E HASTINGS ST,Edison Hair Salon,Service Commercial,49.28091812732447,-123.06149920664672
457,3570,2020,N/A,2121,E HASTINGS ST,Star Tile Co Ltd,Comparison Goods,49.2814532237796,-123.06103877855273
458,3572,2020,N/A,2128,E HASTINGS ST,Vacant,Vacant,49.28091573806061,-123.06104995757696
459,3575,2020,N/A,2137,E HASTINGS ST,Big Joy Barber,Service Commercial,49.281454311737285,-123.06072893863518
460,3576,2020,N/A,2138,E HASTINGS ST,Pho Win Vietnamese,Food & Beverage,49.28091030705216,-123.06053135271104
461,3578,2020,N/A,2140,E HASTINGS ST,Plant Life Nutrition,Convenience Goods,49.28091030705216,-123.06053135271104
462,3581,2020,N/A,2152,E HASTINGS ST,Sena Travel,Service Commercial,49.28091030705216,-123.06053135271104
463,3590,2020,N/A,2205,E HASTINGS ST,Dollar Tree,Comparison Goods,49.28145146561855,-123.0594157555633
464,3591,2020,N/A,2208,E HASTINGS ST,Mama's Furniture Gallery,Comparison Goods,49.28089448613126,-123.05937362091363
465,3593,2020,N/A,2225,E HASTINGS ST,AAA Market,Convenience Goods,49.281448195273875,-123.0591047142005
466,3596,2020,N/A,2244,E HASTINGS ST,Monkey's Gone to Heaven Gallery,Comparison Goods,49.280895641602754,-123.0589069173692
467,3597,2020,N/A,2250,E HASTINGS ST,Dayton Shoe Co Ltd,Comparison Goods,49.28089456160994,-123.05869946341083
468,3606,2020,N/A,2280,E HASTINGS ST,Hastings Sunrise Medical Clinic & Pharmasave,Service Commercial,49.280892468950015,-123.05828439748261
469,3611,2020,N/A,2295,E HASTINGS ST,Busy Bee Dry Cleaners,Service Commercial,49.28144066598904,-123.05806746751293
470,3613,2020,N/A,2297,E HASTINGS ST,Dachi,Food & Beverage,49.28144066598904,-123.05806746751293
471,3616,2020,N/A,2305,E HASTINGS ST,East End Billiards,Entertainment and Leisure,49.281438285587335,-123.05760976613828
472,3617,2020,N/A,2307,E HASTINGS ST,The Goods Screening & Apparel,Comparison Goods,49.281438285587335,-123.05760976613828
473,3618,2020,N/A,2309,E HASTINGS ST,Excel Electronics,Comparison Goods,49.281438285587335,-123.05760976613828
474,3619,2020,N/A,2327,E HASTINGS ST,Tacofino Cantina,Food & Beverage,49.28143742612057,-123.0574552529236
475,3620,2020,N/A,2331,E HASTINGS ST,Platform 7 Coffee,Food & Beverage,49.28143742612057,-123.0574552529236
476,3625,2020,N/A,2355,E HASTINGS ST,Haze Smoke & Vape,Convenience Goods,49.28143608895039,-123.05714604820714
477,3626,2020,N/A,2365,E HASTINGS ST,Shane Simpson MLA,Service Commercial,49.28143608895039,-123.05714604820714
478,3628,2020,N/A,2390,E HASTINGS ST,Cash Money Cheque Cashing,Service Commercial,49.2808777836471,-123.05682657058301
479,3632,2020,N/A,2410,E HASTINGS ST,Happy Laundry,Service Commercial,49.28088873507077,-123.05600899169204
480,3634,2020,N/A,2413,E HASTINGS ST,Guang Zhou Herbal Products,Convenience Goods,49.28143075525186,-123.05627455016052
481,3637,2020,N/A,2425,E HASTINGS ST,Long Live Cats & Dogs,Comparison Goods,49.28143107955491,-123.05599953846013
482,3639,2020,N/A,2431,E HASTINGS ST,BK Market,Convenience Goods,49.28143067678924,-123.05586156654755
483,3640,2020,N/A,2434,E HASTINGS ST,Polonia Sausage House Ltd,Convenience Goods,49.280888470863246,-123.0557573783563
484,3641,2020,N/A,2438,E HASTINGS ST,SY Farm Market,Convenience Goods,49.280888357001075,-123.05563155727313
485,3646,2020,N/A,2449,E HASTINGS ST,Hong Hong Bakery,Convenience Goods,49.28143077995888,-123.0554981187235
486,3647,2020,N/A,2454,E HASTINGS ST,Janet Fashions,Comparison Goods,49.280888099432495,-123.05551623508737
487,3648,2020,N/A,2456,E HASTINGS ST,Super Cat,Service Commercial,49.280888099432495,-123.05551623508737
488,3651,2020,N/A,2465,E HASTINGS ST,Roundel Cafe,Food & Beverage,49.28143071946337,-123.05535982820906
489,3654,2020,N/A,2469,E HASTINGS ST,Bianca Maria Italian Foods,Convenience Goods,49.2814306174068,-123.05522157477245
490,3655,2020,N/A,2471,E HASTINGS ST,The Brighton,Food & Beverage,49.2814306174068,-123.05522157477245
491,3656,2020,N/A,2474,E HASTINGS ST,Black Rook Bakery,Convenience Goods,49.2808878005188,-123.05520137300665
492,3659,2020,N/A,2481,E HASTINGS ST,What's Up Hot Dog,Food & Beverage,49.2814305691785,-123.05505118589655
493,3660,2020,N/A,2482,E HASTINGS ST,Vancity Parlour,Service Commercial,49.280887880122364,-123.0550439312232
494,3661,2020,N/A,2484,E HASTINGS ST,Connect Hearing,Service Commercial,49.280887880122364,-123.0550439312232
495,3665,2020,N/A,2503,E HASTINGS ST,Le Pho,Food & Beverage,49.28134446798357,-123.05423763378849
496,3669,2020,N/A,2515,E HASTINGS ST,Bank of Montreal,Service Commercial,49.2814264744036,-123.05403006395446
497,3671,2020,N/A,2523,E HASTINGS ST,Neo Reflections Hair Design,Service Commercial,49.2814264744036,-123.05403006395446
498,3680,2020,N/A,2542,E HASTINGS ST,Pure Lux,Service Commercial,49.280885886971284,-123.05327016437433
499,3682,2020,N/A,2550,E HASTINGS ST,Liberty Tax,Service Commercial,49.280885886971284,-123.05327016437433
500,3687,2020,N/A,2572,E HASTINGS ST,Jenny Kwan MP,Service Commercial,49.280885886971284,-123.05327016437433
501,3688,2020,N/A,2580,E HASTINGS ST,Bella Ra Hair Salon,Service Commercial,49.28088537504741,-123.0526482170393
502,3695,2020,N/A,2601,E HASTINGS ST,East Village Insurance,Service Commercial,49.281426293153494,-123.05154210366769
503,3698,2020,N/A,2605,E HASTINGS ST,Wheel House Seafoods,Convenience Goods,49.281426293153494,-123.05154210366769
504,3704,2020,N/A,2621,E HASTINGS ST,Belair Realty Group,Service Commercial,49.28142597539113,-123.05126560634501
505,3708,2020,N/A,2629,E HASTINGS ST,Canadian Artisan Gallery,Comparison Goods,49.281425816259095,-123.0511273638721
506,3711,2020,N/A,2632,E HASTINGS ST,Di Oliva,Convenience Goods,49.280883900097166,-123.05104584018966
507,3714,2020,N/A,2638,E HASTINGS ST,Mordimi Bite of Italy,Food & Beverage,49.280883900097166,-123.05104584018966
508,3719,2020,N/A,2647,E HASTINGS ST,Pomegranate,Service Commercial,49.281425335075596,-123.05071285644826
509,3720,2020,N/A,2648,E HASTINGS ST,Hong May Hair Design,Service Commercial,49.28088327013542,-123.05054313187858
510,3721,2020,N/A,2650,E HASTINGS ST,A & S Laundry & Drycleaning,Service Commercial,49.28088327013542,-123.05054313187858
511,3722,2020,N/A,2651,E HASTINGS ST,Tot 2 Teen Dental,Service Commercial,49.28142517178594,-123.0505743816071
512,3724,2020,N/A,2656,E HASTINGS ST,"Dr Bradley Mar, Dr Xuan Nguyen",Service Commercial,49.28088327013542,-123.05054313187858
513,3725,2020,N/A,2660,E HASTINGS ST,Vancouver East Massage Therapy,Service Commercial,49.28088327013542,-123.05054313187858
514,3727,2020,N/A,2661,E HASTINGS ST,Hastings Chiropractic Clinic,Service Commercial,49.281425017226475,-123.05043613364374
515,3728,2020,N/A,2665,E HASTINGS ST,Wung Wo Tong Herbs,Convenience Goods,49.28142485620557,-123.05029788429975
516,3733,2020,N/A,2677,E HASTINGS ST,Roses Children,Comparison Goods,49.28142453726266,-123.05002139249252
517,3734,2020,N/A,2679,E HASTINGS ST,W3 Colour Printing Inc,Service Commercial,49.28142453726266,-123.05002139249252
518,3736,2020,N/A,2687,E HASTINGS ST,Value Choice,Comparison Goods,49.281424213160555,-123.04974490068383
519,3737,2020,N/A,2691,E HASTINGS ST,Five Star Laundry,Service Commercial,49.281424213160555,-123.04974490068383
520,3738,2020,N/A,2693,E HASTINGS ST,Telus Storage,Service Commercial,49.281424213160555,-123.04974490068383
521,3739,2020,N/A,2695,E HASTINGS ST,Laughing Bean Coffee Co. Ltd.,Food & Beverage,49.281424213160555,-123.04974490068383
522,3740,2020,N/A,2696,E HASTINGS ST,Vacant,Vacant,49.28088228329234,-123.04973898782195
523,3744,2020,N/A,2721,E HASTINGS ST,Burcu's Angel's II,Comparison Goods,49.28142325461537,-123.04905396183503
524,3745,2020,N/A,2722,E HASTINGS ST,Carol's Hair Studio,Service Commercial,49.28088057789109,-123.04884683855677
525,3749,2020,N/A,2728,E HASTINGS ST,Slocan Dental,Service Commercial,49.28088057789109,-123.04884683855677
526,3755,2020,140,2741,E HASTINGS ST,ITAL UIL,Service Commercial,49.28142247212301,-123.04836235220723
527,3763,2020,N/A,2775,E HASTINGS ST,Vancouver Tap Dance Society,Service Commercial,49.281421401296384,-123.04739508820946
528,3766,2020,102,2788,E HASTINGS ST,Vacant,Vacant,49.28087864824394,-123.0472574107575
529,3772,2020,N/A,2817,E HASTINGS ST,Woodland Physiotherapy,Service Commercial,49.281419968539424,-123.0460690399163
530,3773,2020,N/A,2839,E HASTINGS ST,Vacant,Vacant,49.281419968539424,-123.0460690399163
531,3777,2020,106,2828,E HASTINGS ST,Italia Bakery,Convenience Goods,49.28087397765273,-123.04608671767791
532,3779,2020,108,2828,E HASTINGS ST,Subway,Food & Beverage,49.28087397765273,-123.04608671767791
533,3780,2020,109,2838,E HASTINGS ST,Pho Don,Food & Beverage,49.28087397765273,-123.04608671767791
534,3782,2020,115,2838,E HASTINGS ST,Cloud City Vape,Convenience Goods,49.28087397765273,-123.04608671767791
535,3783,2020,116,2838,E HASTINGS ST,Dijo's Pizza & Panzerotto,Food & Beverage,49.28087397765273,-123.04608671767791
536,3784,2020,117,2838,E HASTINGS ST,Bianca's Hair Salon,Service Commercial,49.28087397765273,-123.04608671767791
537,3792,2020,120,2891,E HASTINGS ST,Patronato,Service Commercial,49.28144203816615,-123.04456450085995
538,3797,2020,N/A,509,ABBOTT ST,Tsuki Sushi,Food & Beverage,49.28079266762434,-123.10802812888912
539,3802,2020,N/A,556,ABBOTT ST,7-Eleven Store,Convenience Goods,49.280252168334044,-123.10672870864299
540,3805,2020,N/A,609,ABBOTT ST,Sushi Den,Food & Beverage,49.2794282998772,-123.10852867637404
541,3808,2020,N/A,628,ABBOTT ST,Qieu Cafe Pho,Food & Beverage,49.27904312663342,-123.10695865560851
542,3809,2020,N/A,632,ABBOTT ST,Lian Hair Salon,Service Commercial,49.27904312663342,-123.10695865560851
543,3810,2020,N/A,638,ABBOTT ST,Uncle Fatih's Pizza,Food & Beverage,49.27904312663342,-123.10695865560851
544,3811,2020,N/A,648,ABBOTT ST,Vacant,Vacant,49.27904312663342,-123.10695865560851
545,3813,2020,N/A,663,ABBOTT ST,Fresh Slice Pizza,Food & Beverage,49.2794282998772,-123.10852867637404
546,3815,2020,N/A,683,ABBOTT ST,Subway,Food & Beverage,49.2794282998772,-123.10852867637404
547,3816,2020,N/A,512,BEATTY ST,Posh Lash,Service Commercial,49.28079777040849,-123.10868922900556
548,3818,2020,N/A,522,BEATTY ST,Workshop Salon,Service Commercial,49.28067246249142,-123.10885515181077
549,3819,2020,N/A,540,BEATTY ST,The Dirty Apron Delicatessen Corp,Food & Beverage,49.28050633739431,-123.10907488800156
550,3822,2020,N/A,562,BEATTY ST,Devil's Elbow Ale & Smoke House,Food & Beverage,49.28014219772504,-123.10954503546877
551,3828,2020,N/A,80,KEEFER PLACE,Tinseltown Dental,Service Commercial,49.27904312663342,-123.10695865560851
552,3834,2020,N/A,99,KEEFER PLACE,Starbucks Coffee,Food & Beverage,49.280252168334044,-123.10672870864299
553,3836,2020,N/A,138,KEEFER PLACE,Mayflower Beauty Centre Ltd,Service Commercial,49.2794282998772,-123.10852867637404
554,3840,2020,107,181,KEEFER PLACE,HC Express Hair Salon,Service Commercial,49.28023213432103,-123.10834953049691
555,3843,2020,N/A,190,KEEFER PLACE,Vacant,Vacant,49.2794282998772,-123.10852867637404
556,3844,2020,N/A,193,KEEFER PLACE,PappaRoti,Convenience Goods,49.28023213432103,-123.10834953049691
557,3845,2020,N/A,197,KEEFER PLACE,Charisma Cafe & Dessert House,Convenience Goods,49.28023213432103,-123.10834953049691
558,3846,2020,N/A,52,W PENDER ST,Congee Noodle Delight,Food & Beverage,49.280252168334044,-123.10672870864299
559,3849,2020,1001,86,W PENDER ST,McDonalds Restaurants,Food & Beverage,49.280252168334044,-123.10672870864299
560,3850,2020,1055,88,W PENDER ST,Caveman Foods And Deli,Food & Beverage,49.280252168334044,-123.10672870864299
561,3853,2020,N/A,4906,JOYCE ST,Panaderia Latina Bakery,Convenience Goods,49.23965718693175,-123.03004288601969
562,3856,2020,N/A,4942,JOYCE ST,Classic Chinese Craft Kitchen,Food & Beverage,49.23954522681689,-123.03016004257763
563,3862,2020,N/A,5032,JOYCE ST,Tatak Pinoy Filipino Store,Convenience Goods,49.238891515826715,-123.0307764836276
564,3867,2020,N/A,5103,JOYCE ST,Milk & Sugar BBQ Bar,Food & Beverage,49.238267121701405,-123.03230566180015
565,3868,2020,N/A,5108,JOYCE ST,Community Savings Credit,Service Commercial,49.237793866223356,-123.03179482262186
566,3873,2020,N/A,5138,JOYCE ST,Care Point Medical & Wellness,Service Commercial,49.237793866223356,-123.03179482262186
567,3876,2020,N/A,5169,JOYCE ST,Kay Market,Convenience Goods,49.23799942747602,-123.03256931336462
568,3877,2020,N/A,5171,JOYCE ST,Joyce Jiaozi Restaurant,Food & Beverage,49.237830739473225,-123.0327703766259
569,3879,2020,N/A,5179,JOYCE ST,Pampanga's Cuisine,Food & Beverage,49.237830739473225,-123.0327703766259
570,3880,2020,N/A,5183,JOYCE ST,Kumare Express,Food & Beverage,49.237830739473225,-123.0327703766259
571,3883,2020,N/A,5228,JOYCE ST,Japanese Bistro Kamome,Food & Beverage,49.23693097861613,-123.0322002089492
572,3898,2020,N/A,5728,EAST BOULEVARD,Gary Lo Law Corp & Ruth Tang Notary Public,Service Commercial,49.2342670368764,-123.15475526160868
573,3900,2020,N/A,5778,EAST BOULEVARD,Mabelle & Carina Children's,Comparison Goods,49.23385505021767,-123.15404888814786
574,3901,2020,N/A,5860,EAST BOULEVARD,Vacant,Vacant,49.232932121199035,-123.15465852114889
575,3911,2020,N/A,6228,EAST BOULEVARD,Emma Hair Design,Service Commercial,49.22961742856173,-123.1548203077292
576,3912,2020,N/A,6238,EAST BOULEVARD,Prestigue Kitchens,Comparison Goods,49.22961742856173,-123.1548203077292
577,3916,2020,N/A,6292,EAST BOULEVARD,Malatang,Food & Beverage,49.22912936646634,-123.15483765602659
578,3917,2020,N/A,5743,VINE ST,Southland Floral,Convenience Goods,49.234374808186914,-123.16045002738556
579,3918,2020,N/A,2105,W 37TH AV,Magic Box Hobbies,Comparison Goods,49.23858361021473,-123.15595880612749
580,3920,2020,N/A,2106,W 38TH AV,The Valetor,Service Commercial,49.23706047706919,-123.15586084707452
581,3921,2020,N/A,2115,W 38TH AV,Oxford Learning,Service Commercial,49.23746120953972,-123.15584655732006
582,3922,2020,N/A,2138,W 40TH AV,The Secret Garden,Food & Beverage,49.23527743128054,-123.15594737621323
583,3924,2020,N/A,2021,W 41ST AV,Salvation Army Thrift,Comparison Goods,49.23480696117759,-123.15275581760883
584,3933,2020,N/A,2041,W 41ST AV,Avenue Eyecare,Comparison Goods,49.23481484600657,-123.15326616066497
585,3940,2020,N/A,2053,W 41ST AV,Fish Café Restaurant,Food & Beverage,49.2348209686524,-123.15364907599768
586,3941,2020,N/A,2055,W 41ST AV,Nakamura Japanese,Food & Beverage,49.2348209686524,-123.15364907599768
587,3944,2020,N/A,2059,W 41ST AV,FNU Fox & Unicorn Arts,Comparison Goods,49.2348209686524,-123.15364907599768
588,3951,2020,N/A,2071,W 41ST AV,Nick International,Service Commercial,49.23482466513161,-123.15390426474356
589,3954,2020,N/A,2082,W 41ST AV,Kerrisdale Custom Tailors,Service Commercial,49.234260289170564,-123.154313067311
590,3955,2020,N/A,2090,W 41ST AV,Shop N Save,Comparison Goods,49.23427797992813,-123.15457428461816
591,3959,2020,N/A,2102,W 41ST AV,Bank of Montreal,Service Commercial,49.23427154007199,-123.15597244497995
592,3961,2020,N/A,2105,W 41ST AV,Sleep Country Canada,Comparison Goods,49.2348504954168,-123.15583305926575
593,3967,2020,N/A,2125,W 41ST AV,Hills of Kerrisdale,Comparison Goods,49.2348554602737,-123.1561645140685
594,3969,2020,N/A,2127,W 41ST AV,Thomas Hobbs Florist,Convenience Goods,49.23486687865383,-123.15628438859778
595,3972,2020,N/A,2134,W 41ST AV,Gap Kids,Comparison Goods,49.23432039638887,-123.15678684210651
596,3975,2020,N/A,2141,W 41ST AV,Buchans Kerrisdale Stationary,Comparison Goods,49.23486122032119,-123.15654438901485
597,3978,2020,N/A,2144,W 41ST AV,Vacant,Vacant,49.2343252069944,-123.15710072810862
598,3982,2020,N/A,2154,W 41ST AV,Caffe Artigiano,Food & Beverage,49.23432865248401,-123.15731004484375
599,3987,2020,N/A,2171,W 41ST AV,Vacant,Vacant,49.23489181844506,-123.15702964244925
600,3991,2020,N/A,2176,W 41ST AV,Hager Books,Comparison Goods,49.234337906109424,-123.15793751099584
601,3993,2020,N/A,2179,W 41ST AV,Bean Brothers Café,Food & Beverage,49.23487187082868,-123.15723975135582
602,3998,2020,N/A,2189,W 41ST AV,Purdy's Chocolates,Convenience Goods,49.23487661447266,-123.15755368601533
603,3999,2020,N/A,2193,W 41ST AV,Starbucks Coffee,Food & Beverage,49.23487661447266,-123.15755368601533
604,4000,2020,N/A,2198,W 41ST AV,TD Canada Trust,Service Commercial,49.234343643927915,-123.15829587486729
605,4005,2020,N/A,2233,W 41ST AV,Market Meats,Convenience Goods,49.234896769294515,-123.15835166726805
606,4007,2020,N/A,2241,W 41ST AV,Bill Chow Jewellers,Comparison Goods,49.234912175871195,-123.15845567832702
607,4009,2020,N/A,2247,W 41ST AV,Currans Of Kerrisdale,Comparison Goods,49.234912175871195,-123.15845567832702
608,4010,2020,N/A,2248,W 41ST AV,Legato Café,Food & Beverage,49.23436363344935,-123.15918400964395
609,4012,2020,N/A,2251,W 41ST AV,Regent Pacific Insurance,Service Commercial,49.23491518941984,-123.15864826637277
610,4017,2020,N/A,2260,W 41ST AV,Irashai Sushi,Food & Beverage,49.23436571584623,-123.15932104215536
611,4020,2020,N/A,2266,W 41ST AV,Eva Beauty Spa,Service Commercial,49.234367672390235,-123.159457898446
612,4021,2020,N/A,2268,W 41ST AV,Nexgen Hearing,Convenience Goods,49.234367672390235,-123.159457898446
613,4025,2020,N/A,2283,W 41ST AV,Monaliza Lingerie Ltd.,Comparison Goods,49.234901683343914,-123.15928670718534
614,4028,2020,N/A,2293,W 41ST AV,Dairy Queen,Convenience Goods,49.23490374927045,-123.15942906821351
615,4029,2020,N/A,2295,W 41ST AV,Donita Hair Salon,Service Commercial,49.23490374927045,-123.15942906821351
616,4035,2020,N/A,2313,W 41ST AV,Kerrisdale Cleaners,Service Commercial,49.23490451721517,-123.16032296739255
617,4039,2020,N/A,2331,W 41ST AV,The Run Inn,Comparison Goods,49.234931759723686,-123.16059922028644
618,4040,2020,N/A,2336,W 41ST AV,Zhuge Academy,Service Commercial,49.234374808186914,-123.16045002738556
619,4046,2020,N/A,2366,W 41ST AV,Dr. Timothy Kam,Service Commercial,49.23438968928381,-123.1608651038696
620,4049,2020,N/A,2380,W 41ST AV,Vancouver City Savings,Service Commercial,49.23439386103188,-123.1611408807858
621,4050,2020,N/A,2387,W 41ST AV,Sherwin Williams,Comparison Goods,49.23491690366002,-123.16113759990705
622,4053,2020,N/A,2411,W 41ST AV,Minerva Restaurant,Food & Beverage,49.23488795960946,-123.16161027063714
623,4055,2020,N/A,2428,W 41ST AV,Kerrisdale Optical,Comparison Goods,49.23437944153873,-123.16176912422893
624,4059,2020,N/A,2436,W 41ST AV,Loks Chinese Seafood,Food & Beverage,49.23437944153873,-123.16176912422893
625,4060,2020,N/A,2438,W 41ST AV,Balsam Dental,Service Commercial,49.23437944153873,-123.16176912422893
626,4065,2020,N/A,2482,W 41ST AV,Young Feet Health,Service Commercial,49.23438832724254,-123.16233584916321
627,4066,2020,N/A,2486,W 41ST AV,Blue Crystal Beauty Spa,Service Commercial,49.23438832724254,-123.16233584916321
628,4071,2020,N/A,2027,W 42ND AV,Kerrisdale Learning Centre,Service Commercial,49.23383460101688,-123.15270763626135
629,4072,2020,N/A,2029,W 42ND AV,Dr. Janet Thom,Service Commercial,49.23383460101688,-123.15270763626135
630,4079,2020,N/A,2087,W 42ND AV,Aji Sai 2Go,Food & Beverage,49.23385505021767,-123.15404888814786
631,4081,2020,N/A,2110,W 43RD AV,Community Health Centre,Service Commercial,49.23243066972903,-123.15605053211863
632,4084,2020,N/A,5329,WEST BOULEVARD,Greenberg & Associates,Service Commercial,49.238033677441464,-123.15582562016407
633,4086,2020,2,5337,WEST BOULEVARD,West Coast Imaging,Service Commercial,49.238033677441464,-123.15582562016407
634,4088,2020,N/A,5351,WEST BOULEVARD,Sushi King House,Food & Beverage,49.237811701890585,-123.1558334720393
635,4090,2020,N/A,5383,WEST BOULEVARD,West Boulevard Veterinary Clinic,Service Commercial,49.23746120953972,-123.15584655732006
636,4095,2020,N/A,5405,WEST BOULEVARD,12 Baskets Nutrition,Convenience Goods,49.23706047706919,-123.15586084707452
637,4102,2020,N/A,5487,WEST BOULEVARD,Remax,Service Commercial,49.23657210513955,-123.15587884046535
638,4103,2020,N/A,5503,WEST BOULEVARD,West  Coast Liquor Company,Convenience Goods,49.236093551652765,-123.15587470939587
639,4107,2020,N/A,5525,WEST BOULEVARD,UPS Store,Service Commercial,49.236093551652765,-123.15587470939587
640,4109,2020,N/A,5559,WEST BOULEVARD,Vacant,Vacant,49.235956597878854,-123.1558801660967
641,4111,2020,N/A,5575,WEST BOULEVARD,West Blvd Cleaners,Service Commercial,49.23581952190693,-123.1558848517428
642,4112,2020,N/A,5591,WEST BOULEVARD,Kerrisdale Pharmacy 1981,Convenience Goods,49.23571674622688,-123.15588850102435
643,4115,2020,N/A,5615,WEST BOULEVARD,Revolution Medical Clinic,Service Commercial,49.23527743128054,-123.15594737621323
644,4116,2020,N/A,5623,WEST BOULEVARD,Subway,Food & Beverage,49.23527743128054,-123.15594737621323
645,4123,2020,N/A,5753,WEST BOULEVARD,RCC International,Service Commercial,49.23396467277574,-123.15598345832639
646,4124,2020,N/A,5759,WEST BOULEVARD,Dolly Nail,Service Commercial,49.23396467277574,-123.15598345832639
647,4125,2020,N/A,5765,WEST BOULEVARD,Advantage Vacuum,Comparison Goods,49.23396467277574,-123.15598345832639
648,4133,2020,N/A,5999,WEST BOULEVARD,Kerrisdale Veterinary Hospital,Service Commercial,49.232010001977564,-123.15606586730094
649,4144,2020,N/A,6081,WEST BOULEVARD,Balsam Custom Tailors,Service Commercial,49.23105526289247,-123.15607341973568
650,4151,2020,N/A,6111,WEST BOULEVARD,Farrow & Ball,Comparison Goods,49.23037965441251,-123.1561084691008
651,4154,2020,N/A,6239,WEST BOULEVARD,Hana Lash,Service Commercial,49.22944849151828,-123.15613607534551
652,4155,2020,N/A,6243,WEST BOULEVARD,Glam It All Beauty Bar,Service Commercial,49.22944849151828,-123.15613607534551
653,4157,2020,N/A,6315,WEST BOULEVARD,Greenway Surgical,Service Commercial,49.228561424950705,-123.15612981333115
654,4158,2020,N/A,6325,WEST BOULEVARD,Avenue Academy,Service Commercial,49.228561424950705,-123.15612981333115
655,4168,2020,105,2607,E 49TH AV,Vacant,Vacant,49.22538387547534,-123.05386089604805
656,4169,2020,106,2607,E 49TH AV,Mt Fuji Japanese Restaurant,Food & Beverage,49.22538387547534,-123.05386089604805
657,4170,2020,205,2607,E 49TH AV,Sutton Group Killarney Realty,Service Commercial,49.22538387547534,-123.05386089604805
658,4171,2020,102/103,2607,E 49TH AV,Shoppers Drug Mart,Convenience Goods,49.22538387547534,-123.05386089604805
659,4174,2020,109,2609,E 49TH AV,Physiotherapy,Service Commercial,49.22538387547534,-123.05386089604805
660,4176,2020,112,2609,E 49TH AV,George Chow MLA,Service Commercial,49.22538387547534,-123.05386089604805
661,4179,2020,210,2609,E 49TH AV,Kumon,Service Commercial,49.22538387547534,-123.05386089604805
662,4181,2020,N/A,2611,E 49TH AV,88 Supermarket,Convenience Goods,49.22538387547534,-123.05386089604805
663,4182,2020,N/A,2625,E 49TH AV,Pizza Hut,Food & Beverage,49.22538387547534,-123.05386089604805
664,4184,2020,N/A,2649,E 49TH AV,Killarney Animal Hospital,Service Commercial,49.22538387547534,-123.05386089604805
665,4186,2020,N/A,2661,E 49TH AV,Wally's Burgers,Food & Beverage,49.22538387547534,-123.05386089604805
666,4189,2020,N/A,2681,E 49TH AV,Expert Hearing Solutions,Service Commercial,49.22538387547534,-123.05386089604805
667,4193,2020,N/A,700,KINGSWAY,Vacant,Vacant,49.256218364709575,-123.08954160846193
668,4195,2020,N/A,724,KINGSWAY,Tastefully Yours Deli,Food & Beverage,49.2561264945731,-123.0893826980329
669,4205,2020,N/A,770,KINGSWAY,Dr Nelson Villanueva Inc,Service Commercial,49.25584562770521,-123.0887751202055
670,4206,2020,N/A,774,KINGSWAY,Datapi Learning Centre - English Math Science Social Studies,Service Commercial,49.25584562770521,-123.0887751202055
671,4207,2020,N/A,775,KINGSWAY,Thanh Thanh,Food & Beverage,49.256068447479606,-123.08766165361327
672,4211,2020,N/A,789,KINGSWAY,Kilimanjaro Snackhouse,Food & Beverage,49.25585210069922,-123.0871970210757
673,4212,2020,N/A,791,KINGSWAY,Twinstar Collision,Automotive Goods & Services,49.25585210069922,-123.0871970210757
674,4214,2020,N/A,810,KINGSWAY,Sammy's Designer Flooring Ltd,Comparison Goods,49.255174503984726,-123.08725717989532
675,4220,2020,N/A,878,KINGSWAY,Fantasy Travel Company Ltd,Service Commercial,49.25480573012998,-123.08651621406338
676,4224,2020,128,888,KINGSWAY,Tina Cake Desserts,Food & Beverage,49.25471869272837,-123.08612568037341
677,4225,2020,N/A,895,KINGSWAY,Vancity Autobody Ltd,Automotive Goods & Services,49.25528132596924,-123.0859718865163
678,4227,2020,N/A,906,KINGSWAY,Vacant,Vacant,49.25427727134776,-123.08534121815957
679,4231,2020,N/A,920,KINGSWAY,B T Cafe,Food & Beverage,49.25416576112902,-123.08517554339605
680,4233,2020,N/A,928,KINGSWAY,PT Trading Enterprises Phat Tam Duyen,Comparison Goods,49.254119962798946,-123.08505597665068
681,4236,2020,N/A,960,KINGSWAY,Vacant,Vacant,49.25391142110203,-123.08460651837945
682,4237,2020,N/A,966,KINGSWAY,LIVE WELL Exercise Clinic,Entertainment and Leisure,49.25391142110203,-123.08460651837945
683,4239,2020,N/A,988,KINGSWAY,Vacant UC,Vacant UC,49.25380259133992,-123.08421278915255
684,4245,2020,N/A,1017,KINGSWAY,Thang Long Travel Ltd,Service Commercial,49.25391956254603,-123.08306082894396
685,4247,2020,N/A,1021,KINGSWAY,Seoul Travel Service Ltd,Service Commercial,49.25391956254603,-123.08306082894396
686,4248,2020,1,1022,KINGSWAY,Lucky Star Nails,Service Commercial,49.25344014897876,-123.08348112958363
687,4249,2020,2,1022,KINGSWAY,Kien Giang Video,Service Commercial,49.25344014897876,-123.08348112958363
688,4252,2020,5,1022,KINGSWAY,Ha Mi Cafe,Food & Beverage,49.25344014897876,-123.08348112958363
689,4260,2020,N/A,1045,KINGSWAY,P H Solar Window Tint (1997),Automotive Goods & Services,49.25378740658114,-123.08277881043288
690,4263,2020,N/A,1050,KINGSWAY,Natureway Farm Market,Convenience Goods,49.253146222444435,-123.08299737626125
691,4267,2020,N/A,1070,KINGSWAY,Golden City Bakery,Convenience Goods,49.25299436054087,-123.08266876574108
692,4269,2020,N/A,1078,KINGSWAY,Ball and Biscuit Pet Boutique,Comparison Goods,49.25299436054087,-123.08266876574108
693,4270,2020,N/A,1080,KINGSWAY,Saigon Pharmacy Vancouver,Convenience Goods,49.25299436054087,-123.08266876574108
694,4271,2020,N/A,1082,KINGSWAY,Vinasafe Insurance Services Ltd,Service Commercial,49.25299436054087,-123.08266876574108
695,4273,2020,N/A,1085,KINGSWAY,Dr Kenneth W C Mok Inc,Service Commercial,49.25347617054148,-123.08215950878001
696,4275,2020,N/A,1087,KINGSWAY,TK Bakery,Convenience Goods,49.25347617054148,-123.08215950878001
697,4277,2020,N/A,1090,KINGSWAY,Bambu Che,Food & Beverage,49.25299436054087,-123.08266876574108
698,4283,2020,N/A,1123,KINGSWAY,APAC Auto Glass Ltd,Automotive Goods & Services,49.25303151842866,-123.08116606745823
699,4284,2020,N/A,1129,KINGSWAY,Sang Auto Body & Repair,Automotive Goods & Services,49.252978612508635,-123.08105406031768
700,4296,2020,N/A,1198,KINGSWAY,Bean Banh Mi,Food & Beverage,49.25194949754078,-123.08031393271267
701,4297,2020,N/A,1202,KINGSWAY,Hoy's Wonton House,Food & Beverage,49.251731819682476,-123.07971350562161
702,4298,2020,N/A,1207,KINGSWAY,Café Logos,Comparison Goods,49.25225903455455,-123.0794871379395
703,4301,2020,N/A,1217,KINGSWAY,East West Holidays,Service Commercial,49.25225903455455,-123.0794871379395
704,4302,2020,N/A,1219,KINGSWAY,Kumon,Service Commercial,49.25225903455455,-123.0794871379395
705,4305,2020,N/A,1231,KINGSWAY,Eastside Vapes,Convenience Goods,49.252043482226746,-123.07905289860223
706,4307,2020,N/A,1234,KINGSWAY,Midland Liquidators,Comparison Goods,49.25130822523164,-123.07907262769648
707,4308,2020,N/A,1235,KINGSWAY,The Don Spa & Wellness Center,Service Commercial,49.252043482226746,-123.07905289860223
708,4311,2020,N/A,1240,KINGSWAY,Eastpointe Dental Centre,Service Commercial,49.25130822523164,-123.07907262769648
709,4313,2020,N/A,1247,KINGSWAY,Vacant,Vacant,49.25188596891623,-123.07871527731685
710,4315,2020,N/A,1252,KINGSWAY,Zen Foot & Body Massage Inc,Service Commercial,49.25130822523164,-123.07907262769648
711,4316,2020,N/A,1254,KINGSWAY,Domino's Pizza,Food & Beverage,49.25130822523164,-123.07907262769648
712,4321,2020,N/A,1279,KINGSWAY,Café Lu Quan,Food & Beverage,49.25170329469005,-123.07832369330463
713,4323,2020,N/A,1284,KINGSWAY,Grace of India,Food & Beverage,49.251072117926995,-123.0785659582972
714,4328,2020,N/A,1299,KINGSWAY,VanCity Medicinals,Service Commercial,49.25155530295397,-123.0781996324332
715,4330,2020,N/A,1308,KINGSWAY,Solo Market,Convenience Goods,49.250855797592685,-123.07783306568203
716,4344,2020,N/A,1346,KINGSWAY,Wonder of Learning Organization,Service Commercial,49.2503964824268,-123.077334881282
717,4345,2020,N/A,1351,KINGSWAY,Le's Intercontinental Money,Service Commercial,49.25100658506257,-123.07699460237492
718,4349,2020,N/A,1363,KINGSWAY,Sun Bo Kong Vegetarian Rest.,Food & Beverage,49.25100658506257,-123.07699460237492
719,4355,2020,N/A,1382,KINGSWAY,New Sam PO Meat,Convenience Goods,49.25014449824515,-123.07689558191458
720,4356,2020,1,1384,KINGSWAY,Kingcrest Jewellers,Comparison Goods,49.25014449824515,-123.07689558191458
721,4358,2020,N/A,1385,KINGSWAY,Falafel Cafe,Food & Beverage,49.25054398351285,-123.07634747228727
722,4359,2020,N/A,1386,KINGSWAY,Golden Ray Bakery,Convenience Goods,49.25014449824515,-123.07689558191458
723,4360,2020,N/A,1387,KINGSWAY,Van Helen Hair & Nail Salon,Service Commercial,49.25054398351285,-123.07634747228727
724,4361,2020,N/A,1388,KINGSWAY,Thu Hien Deli,Food & Beverage,49.25007250654372,-123.07665224172297
725,4365,2020,N/A,3805,KNIGHT ST,Jeya Brothers,Convenience Goods,49.25054398351285,-123.07634747228727
726,4367,2020,N/A,3907,KNIGHT ST,Tipsy Salon Nails,Service Commercial,49.24975530763774,-123.0765101148619
727,4373,2020,N/A,3935,KNIGHT ST,Cedar Cottage Dental,Service Commercial,49.249258743026814,-123.07651584685043
728,4377,2020,N/A,4001,KNIGHT ST,Checkmate Dry Cleaning,Service Commercial,49.24876842842112,-123.07662718963199
729,4384,2020,N/A,1435,CEDAR COTTAGE MEWS,TD Canada Trust,Service Commercial,49.24915227105941,-123.07542553277607
730,4385,2020,N/A,1437,CEDAR COTTAGE MEWS,Care Dental Clinic,Service Commercial,49.24915227105941,-123.07542553277607
731,4387,2020,N/A,4292,COMMERCIAL ST,Arbutus Florist,Convenience Goods,49.246621029406114,-123.06745587813951
732,4392,2020,N/A,1408,KINGSWAY,Hakim Optical,Comparison Goods,49.24915227105941,-123.07542553277607
733,4393,2020,N/A,1409,KINGSWAY,Dollar Giant,Comparison Goods,49.250231721226925,-123.07575063816414
734,4395,2020,N/A,1427,KINGSWAY,CIBC,Service Commercial,49.25019620894859,-123.0751957607724
735,4403,2020,N/A,1445,KINGSWAY,C J Angel Jewellers,Comparison Goods,49.24978997839412,-123.07449013303402
736,4405,2020,N/A,1451,KINGSWAY,Angel Perfume & Cosmetics,Convenience Goods,49.24978997839412,-123.07449013303402
737,4409,2020,N/A,1463,KINGSWAY,Freedom Mobile,Service Commercial,49.2495894610171,-123.07405541685658
738,4412,2020,N/A,1479,KINGSWAY,Rosy Hair Beauty Design,Service Commercial,49.24959907994193,-123.07369336435727
739,4413,2020,N/A,1481,KINGSWAY,Markarian Fine Optics,Comparison Goods,49.24959907994193,-123.07369336435727
740,4414,2020,N/A,1485,KINGSWAY,Pink Peppercorn Seafood House,Food & Beverage,49.24959907994193,-123.07369336435727
741,4415,2020,N/A,1490,KINGSWAY,Jackson's General,Comparison Goods,49.24881895021936,-123.07381836314127
742,4422,2020,N/A,1578,KINGSWAY,Song's Hair Design,Service Commercial,49.24800738552461,-123.07192284687326
743,4425,2020,N/A,1594,KINGSWAY,Vacant,Vacant,49.24790701034941,-123.0717059594428
744,4433,2020,N/A,1651,KINGSWAY,Kim Thanh Jewellery,Comparison Goods,49.247858694210294,-123.07032019234737
745,4439,2020,N/A,1675,KINGSWAY,30 Minute Hit Fitness Vancouver,Entertainment and Leisure,49.247858694210294,-123.07032019234737
746,4440,2020,N/A,1676,KINGSWAY,Dinas Clinic of Homeopathy,Service Commercial,49.24729790527121,-123.07038999115372
747,4446,2020,N/A,1707,KINGSWAY,Jarrito Loco Tacos Ltd,Food & Beverage,49.2475461524411,-123.06970388560944
748,4449,2020,N/A,1716,KINGSWAY,Shiok Singapore Cuisine,Food & Beverage,49.24685682360962,-123.06945153425123
749,4452,2020,N/A,1722,KINGSWAY,Toubanyoku Wellness Centre,Service Commercial,49.24685682360962,-123.06945153425123
750,4463,2020,N/A,1773,KINGSWAY,Vital Auto Service & Detail Ltd,Automotive Goods & Services,49.24692456279804,-123.06839962429122
751,4470,2020,N/A,1872,KINGSWAY,Oak Grove Clinic Ltd,Service Commercial,49.245777927597146,-123.06713211667041
752,4471,2020,N/A,1875,KINGSWAY,Midas Auto Service Vancouver,Automotive Goods & Services,49.24625486603768,-123.06684747137729
753,4473,2020,N/A,1890,KINGSWAY,Smartmommy Trading Ltd,Service Commercial,49.245651559572,-123.06686118110997
754,4475,2020,N/A,1892,KINGSWAY,Wendy Salon,Service Commercial,49.245651559572,-123.06686118110997
755,4477,2020,N/A,1920,KINGSWAY,Dulux Paints,Comparison Goods,49.245408979369344,-123.06633281175255
756,4478,2020,N/A,1921,KINGSWAY,Vacant,Vacant,49.24595413059752,-123.0662832670105
757,4481,2020,N/A,1927,KINGSWAY,Van Beauty Salon,Service Commercial,49.24591512113887,-123.06611815005974
758,4485,2020,N/A,1949,KINGSWAY,Green Lettuce Restaurant,Food & Beverage,49.24587558380298,-123.06595236903877
759,4489,2020,N/A,1992,KINGSWAY,Dominick's Barber Shop,Service Commercial,49.24500705813498,-123.06546514742358
760,4496,2020,N/A,2032,KINGSWAY,Pacific Medical Clinic-Kingsway,Service Commercial,49.24465082597327,-123.06479216104374
761,4498,2020,N/A,2038,KINGSWAY,Kelly's Hair Studio,Service Commercial,49.24459730911647,-123.06468087928761
762,4499,2020,N/A,2052,KINGSWAY,Mui Ngo Gai Restaurant,Food & Beverage,49.24454376966532,-123.06456959499477
763,4504,2020,N/A,2076,KINGSWAY,Vacant,Vacant,49.244423324680305,-123.06431909976085
764,4505,2020,N/A,2088,KINGSWAY,Family Coin Laundry,Service Commercial,49.24434293901253,-123.06415202198049
765,4509,2020,N/A,2115,KINGSWAY,Kevin Second Hand Shop,Comparison Goods,49.244531345164766,-123.06304073410915
766,4510,2020,N/A,2119,KINGSWAY,Vegan Pizza House,Food & Beverage,49.244531345164766,-123.06304073410915
767,4511,2020,N/A,2123,KINGSWAY,Vacant,Vacant,49.244477696202345,-123.06292942824241
768,4512,2020,N/A,2124,KINGSWAY,Vacant,Vacant,49.24408569225606,-123.06361543948624
769,4518,2020,N/A,2136,KINGSWAY,Gyroscope Collision Services,Automotive Goods & Services,49.24393872122593,-123.06330864209974
770,4523,2020,N/A,2145,KINGSWAY,Green Cross Society of Canada,Convenience Goods,49.24431680525909,-123.0625956577966
771,4524,2020,N/A,2147,KINGSWAY,BC Nail Beauty Supplies,Convenience Goods,49.24431680525909,-123.0625956577966
772,4531,2020,N/A,2172,KINGSWAY,Evergreen Garden Supply,Comparison Goods,49.24358101440331,-123.0625631856226
773,4539,2020,N/A,2212,KINGSWAY,Alta Dental,Service Commercial,49.242823965653514,-123.06159516528464
774,4544,2020,N/A,2223,KINGSWAY,Kings Cafe,Food & Beverage,49.24300999906485,-123.05981263810251
775,4547,2020,N/A,2226,KINGSWAY,Cafe Xu Hue,Food & Beverage,49.242506561541596,-123.06034231470464
776,4550,2020,N/A,2229,KINGSWAY,17 Degrees Bubble Tea,Food & Beverage,49.24300999906485,-123.05981263810251
777,4551,2020,N/A,2230,KINGSWAY,Vancouver Bijou Beaute Boutique,Service Commercial,49.242506561541596,-123.06034231470464
778,4553,2020,N/A,2232,KINGSWAY,Two Sisters Fashion House,Service Commercial,49.242506561541596,-123.06034231470464
779,4554,2020,N/A,2233,KINGSWAY,Synergy Health Center,Service Commercial,49.24300999906485,-123.05981263810251
780,4559,2020,N/A,2242,KINGSWAY,The UPS Store #239,Service Commercial,49.242506561541596,-123.06034231470464
781,4563,2020,N/A,2250,KINGSWAY,Obanhmi,Food & Beverage,49.242506561541596,-123.06034231470464
782,4566,2020,N/A,2255,KINGSWAY,North America Pet Store Inc,Comparison Goods,49.24300999906485,-123.05981263810251
783,4569,2020,N/A,2259,KINGSWAY,Hair Idol Salon,Service Commercial,49.24273167847344,-123.05923625226632
784,4570,2020,N/A,2261,KINGSWAY,Thanh Xuan Café,Food & Beverage,49.24273167847344,-123.05923625226632
785,4574,2020,N/A,2269,KINGSWAY,Ananda Bhavan Indian Rest.,Food & Beverage,49.24273167847344,-123.05923625226632
786,4575,2020,N/A,2271,KINGSWAY,Vacant,Vacant,49.24273167847344,-123.05923625226632
787,4578,2020,N/A,2277,KINGSWAY,Kingsway Petro Canada,Automotive Goods & Services,49.2424221884948,-123.05855663058468
788,4584,2020,N/A,4095,PERRY ST,Famous Foods,Convenience Goods,49.248654421181975,-123.07203712225827
789,4585,2020,N/A,460,KINGSWAY,Fortune Ananda Enterprise Ltd,Service Commercial,49.257703223838924,-123.09353800360338
790,4590,2020,N/A,492,KINGSWAY,Harvard Pharmacy,Convenience Goods,49.257703223838924,-123.09353800360338
791,4591,2020,N/A,498,KINGSWAY,Dr Quan Lan P Inc,Service Commercial,49.257703223838924,-123.09353800360338
792,4594,2020,N/A,520,KINGSWAY,AMCA Medical Education,Service Commercial,49.257703223838924,-123.09353800360338
793,4595,2020,N/A,522,KINGSWAY,Peter Oh Denture Clinic,Service Commercial,49.257703223838924,-123.09353800360338
794,4597,2020,N/A,530,KINGSWAY,Yung Chung Acupuncture Clinic,Service Commercial,49.257703223838924,-123.09353800360338
795,4600,2020,N/A,552,KINGSWAY,Harmony T C M & Acupuncture Clinic Inc,Service Commercial,49.257703223838924,-123.09353800360338
796,4601,2020,N/A,556,KINGSWAY,Tad Deg Holdings Ltd,Service Commercial,49.257703223838924,-123.09353800360338
797,4609,2020,N/A,648,KINGSWAY,Vacant,Vacant,49.256831735483985,-123.09080763273869
798,4614,2020,N/A,666,KINGSWAY,Vacant,Vacant,49.25672658416314,-123.09058296503173
799,4618,2020,N/A,4892,CLARENDON ST,Vacant,Vacant,49.24045300588121,-123.05420054137373
800,4619,2020,N/A,4969,DUCHESS ST,New Rainbow Relaxation Centre,Service Commercial,49.239772504022824,-123.05270788244309
801,4620,2020,N/A,4979,DUCHESS ST,Universal Auricular Acupuncture,Service Commercial,49.239772504022824,-123.05270788244309
802,4623,2020,N/A,2305,KINGSWAY,The Sign Place,Service Commercial,49.24191444496878,-123.05752738431285
803,4627,2020,N/A,2330,KINGSWAY,Shoppers Drug Mart #2289,Convenience Goods,49.241252019835756,-123.05759870032742
804,4628,2020,N/A,2382,KINGSWAY,Camtex Camera,Comparison Goods,49.24090110390686,-123.05684124501063
805,4633,2020,N/A,2475,KINGSWAY,Candida Dias Notary Public,Service Commercial,49.24075197918234,-123.05492365846494
806,4636,2020,N/A,2487,KINGSWAY,Vacant,Vacant,49.24075197918234,-123.05492365846494
807,4638,2020,N/A,2495,KINGSWAY,Fully Homes Clarendon Heights,Service Commercial,49.24075197918234,-123.05492365846494
808,4643,2020,N/A,2516,KINGSWAY,Kwan Luck Restaurant,Food & Beverage,49.23971673572928,-123.05413482778094
809,4646,2020,N/A,2524,KINGSWAY,Vacant,Vacant,49.23961397368503,-123.05390869854811
810,4647,2020,N/A,2525,KINGSWAY,Vacant,Vacant,49.240168879163626,-123.05362688400399
811,4648,2020,N/A,2528,KINGSWAY,I & I Jamaican Restaurant Ltd,Food & Beverage,49.23961397368503,-123.05390869854811
812,4649,2020,101,2529,KINGSWAY,Sandhu & Company CGA,Service Commercial,49.240071880583585,-123.05339426735449
813,4650,2020,N/A,2532,KINGSWAY,Yue Ting Seafood Restaurant,Food & Beverage,49.239509198358704,-123.05368386493244
814,4653,2020,N/A,2540,KINGSWAY,Vacant,Vacant,49.2394045989571,-123.0534589074433
815,4656,2020,N/A,2543,KINGSWAY,T&S Clinic,Service Commercial,49.239998867006605,-123.0532190420315
816,4663,2020,N/A,2568,KINGSWAY,Andamiro Bistro,Food & Beverage,49.239142627835335,-123.0528960605911
817,4665,2020,N/A,2572,KINGSWAY,Get Fresh Coin Laundry Ltd,Service Commercial,49.239093171838476,-123.05278232735229
818,4666,2020,N/A,2573,KINGSWAY,KC Technology Inc,Service Commercial,49.239772504022824,-123.05270788244309
819,4672,2020,N/A,2599,KINGSWAY,Landmark Insurance Services,Service Commercial,49.239772504022824,-123.05270788244309
820,4673,2020,N/A,2603,KINGSWAY,Valkyrie Martial Arts Inc,Entertainment and Leisure,49.23944599433229,-123.05216177714559
821,4677,2020,N/A,2621,KINGSWAY,BTEK Computer,Comparison Goods,49.23944599433229,-123.05216177714559
822,4680,2020,N/A,2639,KINGSWAY,Central Return-it Depot,Comparison Goods,49.23916852203691,-123.05156793209945
823,4683,2020,N/A,2651,KINGSWAY,Pacific Care Pharmacy Ltd,Convenience Goods,49.238962346861605,-123.05110983314684
824,4684,2020,N/A,2657,KINGSWAY,Vacant,Vacant,49.238962346861605,-123.05110983314684
825,4692,2020,N/A,2700,KINGSWAY,Optim Pacific Realty,Service Commercial,49.23786699118031,-123.05008581873582
826,4693,2020,N/A,2714,KINGSWAY,Pilgrim Book & Bible Store Ltd,Comparison Goods,49.237765326450294,-123.04992898677655
827,4694,2020,N/A,2715,KINGSWAY,Lotus Hair Beauty Salon,Service Commercial,49.2386519352458,-123.05041624841024
828,4696,2020,N/A,2719,KINGSWAY,Next Generation Education Ctr,Service Commercial,49.2386519352458,-123.05041624841024
829,4697,2020,N/A,2725,KINGSWAY,Wilf’s Transmission,Automotive Goods & Services,49.23840096663779,-123.04985549792836
830,4699,2020,N/A,2742,KINGSWAY,China Redwood Furniture,Comparison Goods,49.23765451881428,-123.049746918883
831,4702,2020,N/A,2752,KINGSWAY,Top Cantonese Cuisine Rest.,Food & Beverage,49.23765451881428,-123.049746918883
832,4707,2020,N/A,2784,KINGSWAY,Umbrella Property Services,Service Commercial,49.23695347085992,-123.04815884999184
833,4708,2020,N/A,2790,KINGSWAY,Vacant,Vacant,49.23692886462396,-123.04803723797939
834,4709,2020,N/A,2806,KINGSWAY,Unknown Office,Unknown,49.23649610264667,-123.0471832858865
835,4714,2020,N/A,2839,KINGSWAY,Together We Can Addiction Recovery,Service Commercial,49.237002698367256,-123.0466303075922
836,4715,2020,N/A,2918,KINGSWAY,Metro On The Run,Automotive Goods & Services,49.236098914103906,-123.04566974022708
837,4719,2020,N/A,2941,KINGSWAY,Falcon Artistry,Service Commercial,49.23638341344434,-123.04429188794677
838,4725,2020,N/A,2959,KINGSWAY,Collingwood Law Office,Service Commercial,49.23628711957484,-123.04324418656896
839,4733,2020,N/A,4889,SLOCAN ST,Home of B for Brows,Service Commercial,49.240325555867805,-123.05396622401953
840,4736,2020,N/A,2028,VINE ST,Kokomo,Food & Beverage,49.267949510816564,-123.1573244361297
841,4738,2020,N/A,1635,W 4TH AV,Vrs. Veterinary,Service Commercial,49.268137926383496,-123.14169853991856
842,4739,2020,N/A,1636,W 4TH AV,Tesla Motors,Automotive Goods & Services,49.26770019059223,-123.14147728405568
843,4742,2020,N/A,1688,W 4TH AV,No Frills,Convenience Goods,49.26771611683003,-123.14252447242198
844,4747,2020,N/A,1706,W 4TH AV,Continental Repairs,Automotive Goods & Services,49.26772984918922,-123.14353357244809
845,4753,2020,N/A,1731,W 4TH AV,Rowand's Reef Scuba Shop,Comparison Goods,49.26825556630367,-123.1439848762401
846,4754,2020,N/A,1733,W 4TH AV,Flaman Fitness,Comparison Goods,49.26825556630367,-123.1439848762401
847,4755,2020,N/A,1744,W 4TH AV,TR Trades,Service Commercial,49.267741215020095,-123.14416040992249
848,4757,2020,N/A,1749,W 4TH AV,The Boardroom,Comparison Goods,49.26826235315903,-123.14440367362643
849,4758,2020,N/A,1754,W 4TH AV,Longboarder Labs,Comparison Goods,49.26774547737789,-123.14447549885614
850,4760,2020,N/A,1758,W 4TH AV,Joyride Nails,Service Commercial,49.26774691793999,-123.14458014689635
851,4766,2020,N/A,1804,W 4TH AV,Chronic Ink Tattoos,Service Commercial,49.26776763883905,-123.1458886655449
852,4768,2020,N/A,1813,W 4TH AV,Home Effects,Comparison Goods,49.26828866880355,-123.14609224903302
853,4769,2020,N/A,1818,W 4TH AV,Vacant,Vacant,49.26777223808511,-123.1462167208162
854,4770,2020,N/A,1820,W 4TH AV,Be Bloom Floral,Convenience Goods,49.26777223808511,-123.1462167208162
855,4776,2020,N/A,1834,W 4TH AV,The Hokey Poke,Food & Beverage,49.2677800328122,-123.14653026181779
856,4780,2020,N/A,1847,W 4TH AV,Barre Belle,Entertainment and Leisure,49.26829494800106,-123.1466676487156
857,4781,2020,N/A,1850,W 4TH AV,Trattoria Italian Kitchen,Food & Beverage,49.26778062341676,-123.14673965447348
858,4785,2020,N/A,1857,W 4TH AV,Business Now,Service Commercial,49.268303463572,-123.1470337019448
859,4787,2020,N/A,1864,W 4TH AV,The Pie Hole,Convenience Goods,49.26778845957255,-123.14705345415557
860,4789,2020,N/A,1873,W 4TH AV,Romer's Burger Bar,Food & Beverage,49.26830672677099,-123.14724299068445
861,4791,2020,N/A,1885,W 4TH AV,Mark's Work Wearhouse,Comparison Goods,49.268312369091504,-123.14760916886505
862,4793,2020,N/A,1903,W 4TH AV,Tractor,Food & Beverage,49.26831704888711,-123.14814715467355
863,4794,2020,N/A,1905,W 4TH AV,4th Ave Dental Clinic,Service Commercial,49.26832318366115,-123.14851357919163
864,4795,2020,N/A,1904,W 4TH AV,Vacant,Vacant,49.267809660072565,-123.1483239197967
865,4796,2020,N/A,1907,W 4TH AV,Pure Barre Vancouver,Entertainment and Leisure,49.26832318366115,-123.14851357919163
866,4800,2020,N/A,1917,W 4TH AV,The UPS Store,Service Commercial,49.26832318366115,-123.14851357919163
867,4802,2020,103,1926,W 4TH AV,Vacant,Vacant,49.26781738706724,-123.14879536461025
868,4805,2020,N/A,1927,W 4TH AV,Freshii Kitsilano,Food & Beverage,49.26832318366115,-123.14851357919163
869,4806,2020,N/A,1929,W 4TH AV,McCurdy's Wanderlust,Comparison Goods,49.26832318366115,-123.14851357919163
870,4808,2020,N/A,1938,W 4TH AV,Maenam,Food & Beverage,49.267819100608236,-123.14890013746492
871,4810,2020,N/A,1944,W 4TH AV,Fable,Food & Beverage,49.26781807667788,-123.14900501617328
872,4812,2020,N/A,1947,W 4TH AV,The Red Beef Noodle Kitchen,Food & Beverage,49.26833310322767,-123.14908938506966
873,4817,2020,N/A,1958,W 4TH AV,Sejuiced,Food & Beverage,49.26782664695123,-123.14952890256532
874,4818,2020,N/A,1961,W 4TH AV,La Cigale,Food & Beverage,49.268341159440986,-123.14940337074376
875,4820,2020,102,1965,W 4TH AV,Sassy Nails #102,Service Commercial,49.26834530814272,-123.14982217674493
876,4828,2020,N/A,1985,W 4TH AV,Turnabout,Comparison Goods,49.26834701484178,-123.14992665244614
877,4834,2020,N/A,2002,W 4TH AV,La Ruota,Food & Beverage,49.267848015086564,-123.1506486164301
878,4835,2020,N/A,2003,W 4TH AV,Century Cabinets and Countertops,Comparison Goods,49.26836067219452,-123.1506811153205
879,4837,2020,N/A,2005,W 4TH AV,Spank,Comparison Goods,49.26836067219452,-123.1506811153205
880,4840,2020,N/A,2015,W 4TH AV,Country Beads,Comparison Goods,49.268364008604486,-123.15089058759214
881,4841,2020,N/A,2017,W 4TH AV,Gobble,Food & Beverage,49.268364008604486,-123.15089058759214
882,4843,2020,N/A,2025,W 4TH AV,Briers Home Furnishings,Comparison Goods,49.268366393352416,-123.15104746086745
883,4845,2020,N/A,2029,W 4TH AV,Blue Sky Clothing,Comparison Goods,49.268366393352416,-123.15104746086745
884,4849,2020,N/A,2041,W 4TH AV,Turf,Food & Beverage,49.26837478741425,-123.15157107384375
885,4850,2020,N/A,2042,W 4TH AV,Their There,Food & Beverage,49.26785942107151,-123.15138153082866
886,4851,2020,N/A,2048,W 4TH AV,Ayoub's Dried Fruit and Nuts,Convenience Goods,49.26786092014016,-123.1516432157183
887,4852,2020,N/A,2050,W 4TH AV,Fig Facial,Service Commercial,49.26786092014016,-123.1516432157183
888,4860,2020,N/A,2072,W 4TH AV,Aesop,Convenience Goods,49.26786728057678,-123.15206214423436
889,4862,2020,N/A,2077,W 4TH AV,Peak Golf,Comparison Goods,49.26838222945943,-123.15204255392506
890,4867,2020,N/A,2089,W 4TH AV,Ice Breaker Touchlab,Comparison Goods,49.26839020578511,-123.1523564645493
891,4868,2020,N/A,2090,W 4TH AV,Shoes on 4th,Comparison Goods,49.267876742369445,-123.152480747019
892,4870,2020,N/A,2092,W 4TH AV,CIBC,Service Commercial,49.267876742369445,-123.152480747019
893,4881,2020,N/A,2131,W 4TH AV,Zennkai Salon,Service Commercial,49.26840528432948,-123.15357481664839
894,4882,2020,N/A,2135,W 4TH AV,Connies Cookhouse,Food & Beverage,49.26840794427917,-123.1537316937911
895,4884,2020,N/A,2137,W 4TH AV,Middle Sister Boutique,Comparison Goods,49.26840794427917,-123.1537316937911
896,4889,2020,N/A,2149,W 4TH AV,Optical Outlet,Comparison Goods,49.268412093158,-123.1539935672272
897,4890,2020,N/A,2151,W 4TH AV,Pacific Poke,Food & Beverage,49.268412093158,-123.1539935672272
898,4891,2020,N/A,2152,W 4TH AV,Clearly,Comparison Goods,49.267902090505665,-123.15414326780977
899,4901,2020,N/A,2177,W 4TH AV,Miz Mooz,Comparison Goods,49.26842038645601,-123.15451662692053
900,4903,2020,N/A,2185,W 4TH AV,Beverly's Skin Care,Service Commercial,49.26842370805741,-123.15472591959073
901,4906,2020,N/A,2194,W 4TH AV,Jackson Rowe,Comparison Goods,49.26791224214677,-123.15495455445742
902,4921,2020,N/A,2228,W 4TH AV,Freedom Mobile,Service Commercial,49.26792962849344,-123.15606835350249
903,4923,2020,N/A,2232,W 4TH AV,The Co-operators,Service Commercial,49.26792962849344,-123.15606835350249
904,4925,2020,N/A,2235,W 4TH AV,Kit and Ace,Comparison Goods,49.268448900455994,-123.15631081395352
905,4928,2020,N/A,2248,W 4TH AV,Lush,Convenience Goods,49.2679364724271,-123.15633023312218
906,4931,2020,N/A,2254,W 4TH AV,Canvas Hair & Nail Salon,Service Commercial,49.267936264189984,-123.15648738577164
907,4944,2020,N/A,2315,W 4TH AV,Safeway,Convenience Goods,49.268707334243004,-123.15850634557403
908,4946,2020,N/A,2324,W 4TH AV,Maria's Taverna,Food & Beverage,49.26796254164516,-123.15812413194199
909,4949,2020,N/A,2344,W 4TH AV,Apple Farm Market,Convenience Goods,49.2679694297415,-123.15838583072035
910,4952,2020,N/A,2350,W 4TH AV,Vacant,Vacant,49.26797320953273,-123.15880458643429
911,4954,2020,N/A,2354,W 4TH AV,Vacant,Vacant,49.26797320953273,-123.15880458643429
912,4958,2020,N/A,2380,W 4TH AV,Terra Breads,Convenience Goods,49.2679833170308,-123.15927540845666
913,4962,2020,N/A,2388,W 4TH AV,Bank of Montreal,Service Commercial,49.26798569218707,-123.15943228640566
914,4968,2020,N/A,189,E 28TH AV,Le' Gent,Comparison Goods,49.24611887624611,-123.10161390873843
915,4969,2020,N/A,3510,MAIN ST,DM Motor Cars,Automotive Goods & Services,49.25362590703197,-123.1004587971205
916,4975,2020,N/A,3553,MAIN ST,Bruce Eyewear Too,Comparison Goods,49.253207531032565,-123.10125034735006
917,4976,2020,N/A,3555,MAIN ST,Main Barbers,Service Commercial,49.253207531032565,-123.10125034735006
918,4977,2020,N/A,3561,MAIN ST,Neptoon Records,Comparison Goods,49.253117133012395,-123.10125403762655
919,4978,2020,N/A,3570,MAIN ST,Vacant UC,Vacant UC,49.25323558162551,-123.1004311495624
920,4981,2020,N/A,3583,MAIN ST,Aesop,Convenience Goods,49.25289111993114,-123.10126330169963
921,4983,2020,N/A,3593,MAIN ST,Published Restaurant,Food & Beverage,49.25289111993114,-123.10126330169963
922,4985,2020,N/A,3604,MAIN ST,Sellution Consignment,Comparison Goods,49.25281097951462,-123.10055287446151
923,4990,2020,N/A,3622,MAIN ST,Condesa Jewelry,Comparison Goods,49.25245232410354,-123.10057937757344
924,4992,2020,N/A,3628,MAIN ST,Artemisia Clothing,Comparison Goods,49.25235313965367,-123.10062427978225
925,4994,2020,N/A,3634,MAIN ST,Smoking Lily,Comparison Goods,49.252226129214044,-123.1006579932712
926,4997,2020,N/A,3649,MAIN ST,Exposure,Comparison Goods,49.252303045263055,-123.1012861862689
927,5001,2020,N/A,3683,MAIN ST,Welcome Home Eugene Choo,Comparison Goods,49.252031505781616,-123.10129515215148
928,5002,2020,N/A,3697,MAIN ST,Collage Collage,Comparison Goods,49.25194087477227,-123.10129780843312
929,5003,2020,N/A,3699,MAIN ST,Liberty Bakery,Convenience Goods,49.25194087477227,-123.10129780843312
930,5010,2020,N/A,3718,MAIN ST,The Soap Dispensary,Comparison Goods,49.25175668811959,-123.10056416527775
931,5015,2020,N/A,3740,MAIN ST,Front & Company,Comparison Goods,49.251578055940776,-123.10056062269545
932,5017,2020,N/A,3746,MAIN ST,Front & Company,Comparison Goods,49.251484725687504,-123.10056406768634
933,5022,2020,N/A,3793,MAIN ST,Lines Consignment Clothing,Comparison Goods,49.25103650743495,-123.10133067363928
934,5023,2020,N/A,3795,MAIN ST,Ollie Quinn Canada,Comparison Goods,49.25103650743495,-123.10133067363928
935,5042,2020,N/A,3938,MAIN ST,Faux Floral,Comparison Goods,49.24994902107106,-123.10060031039065
936,5047,2020,N/A,3958,MAIN ST,The August Market,Convenience Goods,49.24984357391878,-123.10060823206338
937,5048,2020,N/A,3967,MAIN ST,Vacant,Vacant,49.24981795960555,-123.10140197326804
938,5049,2020,N/A,3969,MAIN ST,Sky World Optical,Comparison Goods,49.24981795960555,-123.10140197326804
