stop_code,stop_id,stop_name,zone_id,latitude,longitude,junction_id,junction_dst
61522,11542,Southbound Howe St @ Davie St,BUS ZN,49.277974,-123.127034,2213,23.217393314000574
51114,11541,Southbound West Blvd @ W 57 Ave,BUS ZN,49.219164,-123.150433,1272,35.239277413378
50272,275,Northbound Blanca St @ W 10 Ave,BUS ZN,49.264289,-123.215067,14,42.23588949433742
50273,276,Blanca Loop @ Bay 1,BUS ZN,49.265243,-123.21585,15,69.80379828325039
50274,277,Eastbound W 10 Ave @ Blanca St,BUS ZN,49.263836,-123.214641,14,41.30693426250888
50275,278,Eastbound W 10 Ave @ Tolmie St,BUS ZN,49.26381,-123.211737,35,28.883828006564087
50276,279,Eastbound W 10 Ave @ Sasamat St,BUS ZN,49.263764,-123.208525,58,41.11453804232737
52126,2146,Eastbound SW Marine Dr @ Heather St,BUS ZN,49.207179,-123.123861,2314,26.782595685893263
50098,98,Southbound Burrard St @ Davie St,BUS ZN,49.278914,-123.12964,2113,38.75690566473358
50091,91,Westbound W Pender St @ Carrall St,BUS ZN,49.280707,-123.104998,3036,14.38575571397954
50093,93,Westbound W Pender St @ Abbott St,BUS ZN,49.28129,-123.108213,2913,17.630677093883804
50095,95,Westbound W Pender St @ Seymour St,BUS ZN,49.283818,-123.113429,2727,36.81594446500119
50097,97,Westbound W Pender St @ Howe St,BUS ZN,49.285523,-123.116055,2663,30.458979071916662
50096,96,Westbound W Pender St @ Granville St,BUS ZN,49.284575,-123.114596,2703,19.195587231867957
50866,873,Southbound Granville St @ SW Marine Dr,BUS ZN,49.205733,-123.140764,1627,13.413779508936345
50863,870,Southbound Granville St @ W 65 Ave,BUS ZN,49.211828,-123.140547,1639,48.29721959493849
57944,8019,Waterfront Station Eastbound,WCE1Z,49.286053,-123.11158,2796,85.48329024585038
50389,393,Eastbound W 4th Ave @ Collingwood St,BUS ZN,49.268471,-123.181214,483,35.0407174804499
50388,392,Eastbound W 41 Ave @ Granville St,BUS ZN,49.234268,-123.140768,1590,47.93319424787554
50386,390,Eastbound W 41 Ave @ Adera St,BUS ZN,49.2343,-123.142893,1534,30.768764934056723
50393,397,Eastbound W 4th Ave @ Macdonald St,BUS ZN,49.268274,-123.167779,786,38.84909293546167
50394,398,Eastbound W 4th Ave @ Trafalgar St,BUS ZN,49.268236,-123.164123,897,28.827185137898844
61372,11281,King Edward Station @ Platform 1,ZN 1,49.249172,-123.115228,2674,23.88338433922133
61371,11280,King Edward Station @ Platform 2,ZN 1,49.249186,-123.115716,2674,32.497011422478174
61374,11283,Oakridge-41st Avenue Station @ Platform 1,ZN 1,49.233731,-123.116176,2641,21.4762963484904
61373,11282,Oakridge-41st Avenue Station @ Platform 2,ZN 1,49.233747,-123.116422,2641,29.28775004148245
61376,11285,Langara-49th Avenue Station @ Platform 1,ZN 1,49.225709,-123.116289,2627,46.45918219721801
61375,11284,Langara-49th Avenue Station @ Platform 2,ZN 1,49.225743,-123.116752,2627,45.275408819421706
61378,11287,Marine Drive Station @ Platform 1,ZN 1,49.209663,-123.116921,2607,54.459010618562935
61377,11286,Marine Drive Station @ Platform 2,ZN 1,49.209661,-123.117078,2607,53.2038990644723
50179,179,Northbound Main St @ E 2nd Ave,BUS ZN,49.269455,-123.100505,3242,34.96725666271519
50178,178,Northbound Main St @ E 5th Ave,BUS ZN,49.266719,-123.100662,3237,36.330742817670455
50177,177,Northbound Main St @ E 6th Ave,BUS ZN,49.265339,-123.100685,3236,21.031019617115838
50176,176,Northbound Main St @ E Broadway,BUS ZN,49.263233,-123.100792,3227,37.802200804940014
50174,174,Northbound Main St @ E 12 Ave,BUS ZN,49.260528,-123.100888,3215,39.01611214836482
59582,173,Northbound Main St @ E 14 Ave,BUS ZN,49.258782,-123.100989,3212,45.07947898985365
59835,171,Northbound Main St @ E 18 Ave,BUS ZN,49.255006,-123.100984,3221,24.160097763734058
59836,170,Northbound Main St @ E 20 Ave,BUS ZN,49.253226,-123.100763,3229,29.188389232115227
59832,10399,Southbound Howe St @ Dunsmuir St,BUS ZN,49.284576,-123.117067,2605,42.12255217061697
51968,1985,Eastbound W 49 Ave @ Alberta St,BUS ZN,49.225896,-123.112498,2750,33.427678537411545
60402,12667,Westbound E 41 Ave @ Victoria Dr,BUS ZN,49.232733,-123.066544,4685,27.966044374618203
60399,12664,Eastbound E 41 Ave @ Main St,BUS ZN,49.232982,-123.102441,3193,68.84895273427762
51746,1760,Northbound Cassiar Connector @ 100 Block,BUS ZN,49.283253,-123.031278,6254,44.88137040342568
50685,692,Southbound Nanaimo St @ E 17 Ave,BUS ZN,49.254756,-123.056762,5176,39.04543089151037
50686,693,Southbound Nanaimo St @ E 20 Ave,BUS ZN,49.252026,-123.056768,5173,38.01587811466805
51532,1544,Eastbound E 22 Ave @ Boyd Diversion,BUS ZN,49.250553,-123.043474,5760,40.02508847241902
51533,1545,Eastbound E 22 Ave @ Lillooet St,BUS ZN,49.250535,-123.038654,5907,29.72049601605776
51530,1542,Eastbound E 22 Ave @ Slocan St,BUS ZN,49.250567,-123.049111,5501,36.835167909780935
50690,697,Eastbound E 22 Ave @ Nanaimo St,BUS ZN,49.250547,-123.055999,5170,45.91467331847638
50687,694,Southbound Nanaimo St @ E 22 Ave,BUS ZN,49.250268,-123.056774,5170,41.682830473191984
50688,695,Nanaimo Station @ Bay 3,BUS ZN,49.248412,-123.055476,5316,79.62468932831408
52095,11113,Westbound W Broadway @ Macdonald St,BUS ZN,49.264156,-123.167544,794,45.74953257006045
50692,699,Southbound Slocan St @ E 29 Ave,BUS ZN,49.24424,-123.050004,5493,50.02157624918198
51537,1549,Eastbound Kincaid St @ Boundary Rd,BUS ZN,49.24878,-123.023043,6510,110.48261964122025
58721,11563,Southbound Burrard St @ Burnaby St,BUS ZN,49.278573,-123.130164,2077,23.069082922413617
50362,366,Southbound Dunbar St @ W 17 Ave,BUS ZN,49.257067,-123.185245,405,32.71085705888289
50256,258,Southbound Main St @ E 46 Ave,BUS ZN,49.228145,-123.101625,3191,36.34515275281588
50361,365,Southbound Dunbar St @ W 15 Ave,BUS ZN,49.258657,-123.184116,410,29.334207940819326
50250,252,Southbound Main St @ E 36 Ave,BUS ZN,49.23788,-123.101715,3186,31.04061371725379
50248,250,Southbound Main St @ E 30 Ave,BUS ZN,49.243003,-123.101498,3202,32.7700198396288
50249,251,Southbound Main St @ E 33 Ave,BUS ZN,49.240211,-123.101629,3196,33.784544426809106
59041,256,Southbound Main St @ E 41 Ave,BUS ZN,49.232735,-123.101636,3194,25.741903152364745
50255,257,Southbound Main St @ E 43 Ave,BUS ZN,49.230612,-123.101591,3198,33.52725943539768
50253,255,Eastbound E 41 Ave @ Main St,BUS ZN,49.232967,-123.101913,3193,32.02664469921886
61917,12036,Westbound W Pender St @ Howe St,BUS ZN,49.285131,-123.115432,2663,33.67992891256055
61925,12034,Waterfront Station,ZN 1,49.285687,-123.111773,2796,42.69067935770634
50357,361,Southbound Alma St @ W 10 Ave,BUS ZN,49.26367,-123.186028,355,24.54828008275056
58762,10439,Southbound Fraser St @ SE Marine Dr,BUS ZN,49.211303,-123.091221,3623,34.30138550810285
59576,10180,Northbound N Boundary Rd @ Eton St,BUS ZN,49.287718,-123.023214,6557,17.0102059782568
51150,1159,Eastbound Kingsway @ McKinnon St,BUS ZN,49.234792,-123.037515,5983,34.38229913433431
51149,1158,Eastbound Kingsway @ Rupert St,BUS ZN,49.235786,-123.041963,5786,29.729495030883356
51145,1154,Eastbound Kingsway @ Miller St,BUS ZN,49.246687,-123.06866,4613,9.709976278103891
51148,1157,Eastbound Kingsway @ Killarney St,BUS ZN,49.236159,-123.045333,5675,24.034976403218113
51147,1156,Eastbound Kingsway @ Earles St,BUS ZN,49.23728,-123.048397,5557,47.190500314488254
51142,1151,Eastbound Kingsway @ Knight St,BUS ZN,49.249736,-123.075484,4279,46.83242755117742
51141,1150,Eastbound Kingsway @ Clark Dr,BUS ZN,49.250834,-123.077633,4189,26.203615872481034
51144,1153,Eastbound Kingsway @ Perry St,BUS ZN,49.247719,-123.070924,4506,36.6186488642415
51143,1152,Eastbound Kingsway @ Dumfries St,BUS ZN,49.24866,-123.072988,4418,33.826742454148125
57960,8035,Waterfront Station Northbound,ZN 1,49.286063,-123.111306,2796,93.52944945336102
57959,8034,Waterfront Station Unload Only,WCE1Z,49.286116,-123.111512,2796,93.55711527648299
57964,8039,Waterfront Station @ Platform 2,ZN 1,49.285907,-123.111578,2796,69.94379540282657
57963,8038,Waterfront Station Southbound,ZN 1,49.286137,-123.111403,2796,98.28543037577612
60342,12581,Southbound Cambie St @ W Georgia St,BUS ZN,49.279676,-123.112876,2738,45.98412217998607
50137,12585,Eastbound W 41 Ave @ Cambie St,BUS ZN,49.233415,-123.115623,2641,42.46765866758725
59393,10047,Westbound Beach Ave @ Hornby St,BUS ZN,49.275543,-123.132974,1964,25.809743136752246
58042,8139,Kootenay Loop @ Bay 2,BUS ZN,49.281495,-123.026062,6457,50.497359749051476
50151,151,Northbound Main St @ E 49 Ave,BUS ZN,49.225975,-123.10147,3180,36.86933210694656
50150,150,Northbound Main St @ E 51 Ave,BUS ZN,49.223638,-123.101593,3178,15.267122016832413
59842,152,Northbound Main St @ E 46 Ave,BUS ZN,49.228719,-123.101386,3191,29.819937376996517
50155,155,Northbound Main St @ E 41 Ave,BUS ZN,49.233445,-123.101394,3189,20.444614098208557
50154,154,Northbound Main St @ E 43 Ave,BUS ZN,49.231454,-123.101306,3197,21.234536764592573
50157,157,Westbound W 41 Ave @ Ontario St,BUS ZN,49.233269,-123.106197,3003,42.480958912217886
50158,158,Westbound W 41 Ave @ Columbia St,BUS ZN,49.233442,-123.11122,2831,38.41312253097207
60825,10374,VCC-Clark Station @ Platform 2,ZN 1,49.265799,-123.079054,4134,35.27861614130522
60824,10375,VCC-Clark Station @ Platform 1,ZN 1,49.265873,-123.079049,4134,29.364258038992496
59783,10371,Northbound Boundary Rd @ E Kent Ave North,BUS ZN,49.203898,-123.023178,6560,16.347512556564155
60014,10513,Westbound Expo Blvd @ Nelson St,BUS ZN,49.274765,-123.116234,2658,22.281458229118048
50683,690,Southbound Nanaimo St @ E Broadway,BUS ZN,49.261831,-123.056764,5188,37.103535013707905
58130,8860,Rupert Station @ Bay 1,BUS ZN,49.260804,-123.033608,6134,120.67605405299567
50811,818,Southbound Oak St @ W 57 Ave,BUS ZN,49.218926,-123.128765,2141,33.28190021267934
50812,819,Southbound Oak St @ W 59 Ave,BUS ZN,49.216857,-123.129581,2105,36.33314355831238
50804,811,Eastbound W 41 Ave @ Oak St,BUS ZN,49.2338,-123.126888,2164,86.54585764313909
50805,812,Southbound Oak St @ W 41 Ave,BUS ZN,49.233541,-123.128231,2164,46.74171645113533
50806,813,Southbound Oak St @ W 43 Ave,BUS ZN,49.231779,-123.128278,2161,36.390287810156984
50807,814,Southbound Oak St @ W 46 Ave,BUS ZN,49.229046,-123.128376,2158,30.19538682017013
50808,815,Southbound Oak St @ W 49 Ave,BUS ZN,49.22616,-123.128478,2152,44.93313385465048
50810,817,Southbound Oak St @ W 54 Ave,BUS ZN,49.221231,-123.128635,2143,35.79765736940395
51687,1701,Northbound Rupert St @ Graveley St,BUS ZN,49.270822,-123.033606,6146,46.66066577538039
51689,1703,Northbound Rupert St @ William St,BUS ZN,49.274384,-123.03354,6153,29.05154171513031
51690,1704,Northbound Rupert St @ Parker St,BUS ZN,49.27613,-123.03352,6155,38.12611833363979
51692,1706,Eastbound Adanac St @ Skeena St,BUS ZN,49.277384,-123.029097,6351,56.699960355061
51694,1708,Northbound Boundary Rd @ Georgia St,BUS ZN,49.278725,-123.023311,6545,42.39427636357678
51695,1709,Kootenay Loop @ Bay 3,BUS ZN,49.281408,-123.026254,6457,52.819828115419746
52991,3022,Southbound Boundary Rd @ Pandora St,BUS ZN,49.282683,-123.023697,6551,31.933101367850618
52990,3021,Southbound Boundary Rd @ Dundas St,BUS ZN,49.284524,-123.023659,6553,28.574655577475653
52989,3020,Southbound N Boundary Rd @ Cambridge St,BUS ZN,49.286231,-123.023627,6556,53.691962461363225
50339,343,Southbound Oak St @ Devonshire Cres,BUS ZN,49.244095,-123.127861,2176,42.954889530497994
61825,12050,Northbound Clarendon St @ E 33 Ave,BUS ZN,49.23952,-123.055375,5265,26.122277950733263
50232,234,Southbound Main St @ National Ave,BUS ZN,49.274506,-123.100141,3275,48.59532694800156
50233,235,Main Street-Science World Station @ Bay 1,BUS ZN,49.273072,-123.100189,3271,35.86523070729175
50234,236,Southbound Main St @ Switchmen St,BUS ZN,49.270621,-123.100821,3245,21.899433987343986
50228,230,Eastbound E Cordova St @ Main St,BUS ZN,49.282229,-123.099988,3298,29.335660368978143
50229,231,Southbound Main St @ E Hastings St,BUS ZN,49.28081,-123.099812,3289,48.86478972181527
50230,232,Southbound Main St @ Keefer St,BUS ZN,49.279029,-123.099896,3285,46.97280080491882
51525,1537,Eastbound E King Edward Ave @ Knight St,BUS ZN,49.248429,-123.075675,4276,34.092040611927956
50931,939,Eastbound W Hastings St @ Homer St,BUS ZN,49.283054,-123.110546,2823,47.31424754666842
50930,938,Eastbound W Hastings St @ Seymour St,BUS ZN,49.284334,-123.112551,2765,42.63760633459267
50924,932,Westbound W Broadway @ Ash St,BUS ZN,49.26336,-123.118098,2593,45.81537935799637
51967,10745,Langara-49th Station @ Bay 3,BUS ZN,49.226003,-123.11584,2627,47.71249926509648
50926,934,Westbound W Broadway @ Willow St,BUS ZN,49.263433,-123.122318,2422,38.981845452363345
51740,1754,Northbound Boundary Rd @ Lougheed Hwy,BUS ZN,49.26604,-123.023373,6522,57.432588406196736
50790,797,Southbound Fraser St @ E 41 Ave,BUS ZN,49.232478,-123.090705,3668,46.869697874861764
50789,796,Southbound Fraser St @ E 39 Ave,BUS ZN,49.234521,-123.090651,3669,31.414602848736195
50788,795,Southbound Fraser St @ E 37 Ave,BUS ZN,49.236049,-123.090613,3670,41.41939123710645
50787,794,Southbound Fraser St @ E 35 Ave,BUS ZN,49.238045,-123.090514,3673,30.26300035625476
50786,793,Southbound Fraser St @ E 33 Ave,BUS ZN,49.239976,-123.090476,3674,37.587079677746594
58954,792,Southbound Fraser St @ E 31 Ave,BUS ZN,49.242261,-123.090417,3677,34.21720218436432
50784,791,Southbound Fraser St @ E 29 Ave,BUS ZN,49.244247,-123.090388,3679,35.79537182029678
50783,790,Southbound Fraser St @ E 27 Ave,BUS ZN,49.246305,-123.090308,3683,33.418751812715556
50792,799,Southbound Fraser St @ E 45 Ave,BUS ZN,49.228897,-123.090762,3665,32.25880478966208
50791,798,Southbound Fraser St @ E 43 Ave,BUS ZN,49.230719,-123.090713,3667,30.82332228447938
51130,1139,Eastbound E 41 Ave @ School Ave,BUS ZN,49.233197,-123.036985,5993,35.10835531479744
51129,1138,Eastbound E 41 Ave @ Kerr St,BUS ZN,49.232892,-123.039828,5881,28.84322822402389
51124,1133,Eastbound E 41 Ave @ Clarendon St,BUS ZN,49.232754,-123.054813,5266,41.84271984638626
51123,1132,Eastbound E 41 Ave @ Nanaimo St,BUS ZN,49.232788,-123.058373,5068,36.312694284977326
51122,1131,Eastbound E 41 Ave @ Gladstone St,BUS ZN,49.232817,-123.06167,4902,32.808603321927144
51121,1130,Eastbound E 41 Ave @ Victoria Dr,BUS ZN,49.232713,-123.06505,4767,34.40526053005585
51128,1137,Eastbound E 41 Ave @ Rupert St,BUS ZN,49.23288,-123.042556,5769,38.891377196669985
51127,1136,Eastbound E 41 Ave @ Killarney St,BUS ZN,49.232892,-123.045427,5660,35.65934397331751
51126,1135,Eastbound E 41 Ave @ Earles St,BUS ZN,49.232715,-123.04831,5564,33.41025417713855
51125,1134,Eastbound E 41 Ave @ Wales St,BUS ZN,49.232722,-123.051214,5453,32.907009781578196
50682,689,Westbound E Broadway @ Nanaimo St,BUS ZN,49.26234,-123.057336,5188,58.66476928848909
51561,1573,Southbound Nanaimo St @ E 28 Ave,BUS ZN,49.24547,-123.056785,5162,11.365401086225035
51562,1574,Southbound Nanaimo St @ Brock St,BUS ZN,49.243673,-123.056787,5158,11.53945776830562
59751,10357,Westbound W 6th Ave @ Alder Crossing,BUS ZN,49.266199,-123.132576,1993,38.11770007920549
59761,10352,Westbound E 2nd Ave @ Main St,BUS ZN,49.269283,-123.101217,3242,41.103277766415374
54832,4884,Southbound Howe St @ Nelson St,BUS ZN,49.279698,-123.124449,2350,39.86312817731224
59754,10359,Eastbound W 6th Ave @ Heather St,BUS ZN,49.265832,-123.120144,2516,28.35167315958718
60517,12749,Southbound Main St @ E Broadway,BUS ZN,49.26318,-123.101149,3227,33.717120545449724
59889,12318,Kootenay Loop @ Bay 1,BUS ZN,49.281403,-123.025625,6457,32.28428516937039
60746,12744,Westbound W 49 Ave @ Yew St,BUS ZN,49.227274,-123.159273,1026,36.29610917386432
50825,832,Northbound Fraser St @ E 52 Ave,BUS ZN,49.223033,-123.090707,3655,35.732062912993584
50823,830,Northbound Fraser St @ E 57 Ave,BUS ZN,49.218589,-123.090819,3643,38.6825276443307
50824,831,Northbound Fraser St @ E 54 Ave,BUS ZN,49.22126,-123.090756,3650,46.029800813691146
50829,836,Northbound Fraser St @ E 45 Ave,BUS ZN,49.229442,-123.090556,3665,30.178481992753195
50830,837,Northbound Fraser St @ E 43 Ave,BUS ZN,49.231265,-123.0905,3667,31.8944307264537
50827,834,Northbound Fraser St @ E 49 Ave,BUS ZN,49.225766,-123.090643,3659,34.3731100869416
50832,839,Northbound Fraser St @ E 39 Ave,BUS ZN,49.235102,-123.090364,3669,36.58782262374683
61110,11623,Southbound Slocan St @ Kingsway,BUS ZN,49.240272,-123.053886,5355,30.114164527136925
51714,1728,Southbound Rupert St @ E 22 Ave,BUS ZN,49.25033,-123.033942,6122,31.4301606041205
51712,1726,Southbound Rupert St @ E 18 Ave,BUS ZN,49.253698,-123.033945,6125,34.73020808763333
51713,1727,Southbound Rupert St @ E 20 Ave,BUS ZN,49.252011,-123.033936,6123,35.61212695131258
51710,1724,Southbound Rupert St @ Grandview Hwy,BUS ZN,49.257755,-123.033953,6131,45.60817837772426
51711,1725,Southbound Rupert St @ E 16 Ave,BUS ZN,49.255276,-123.03393,6128,34.13157865373888
51706,1720,Southbound Rupert St @ E 7th Ave,BUS ZN,49.263542,-123.033894,6136,32.40682179416069
51707,1721,Southbound Rupert St @ E Broadway,BUS ZN,49.262185,-123.03393,6134,35.96247166718654
51576,1588,Westbound W King Edward Ave @ Laurel St,BUS ZN,49.249302,-123.125107,2298,33.36199543428389
51577,1589,Westbound W King Edward Ave @ Oak St,BUS ZN,49.249375,-123.128078,2187,43.02830092242366
51570,1582,Westbound E King Edward Ave @ Prince Edward St,BUS ZN,49.248783,-123.097125,3414,8.881981842033188
51571,1583,Westbound E King Edward Ave @ Main St,BUS ZN,49.248868,-123.101632,3216,45.542161251953
51568,1580,Westbound E King Edward Ave @ Fraser St,BUS ZN,49.248724,-123.090591,3685,34.01600999880546
51569,1581,Westbound E King Edward Ave @ St. George St,BUS ZN,49.248752,-123.094411,3543,27.86027241146373
51574,1586,King Edward Station @ Bay 1,BUS ZN,49.249121,-123.116003,2674,46.94340798333895
51575,1587,Westbound W King Edward Ave @ Heather St,BUS ZN,49.249205,-123.120844,2479,38.51622334044136
51572,1584,Westbound W King Edward Ave @ Ontario St,BUS ZN,49.248922,-123.105388,3025,31.41564124973802
51573,1585,Westbound W King Edward Ave @ Columbia St,BUS ZN,49.249023,-123.110516,2853,38.02014070858944
50456,460,Northbound Oak St @ W King Edward Ave,BUS ZN,49.249632,-123.127357,2187,46.875527513439245
50213,214,Northbound Granville St @ W 14 Ave,BUS ZN,49.25921,-123.138595,1711,35.00312975220374
50214,215,Northbound Granville St @ W 12 Ave,BUS ZN,49.261157,-123.13852,1714,44.43972400398703
50211,212,Northbound Granville St @ Matthews Ave,BUS ZN,49.253467,-123.138804,1706,37.96930783348484
50212,213,Northbound Granville St @ W 16 Ave,BUS ZN,49.257367,-123.138663,1709,36.55976624954292
50209,210,Northbound Granville St @ W King Edward Ave,BUS ZN,49.250127,-123.138924,1702,78.49681443000249
50210,211,Northbound Granville St @ Balfour Ave,BUS ZN,49.252263,-123.138834,1705,39.822537698927206
50217,218,Northbound Granville St @ W 7th Ave,BUS ZN,49.265651,-123.138349,1724,35.63428850015848
61930,12071,Westbound Powell St @ Clark Dr,BUS ZN,49.283161,-123.076463,4257,43.08414902647889
61933,12070,Eastbound Cordova Diversion @ Hawks Ave,BUS ZN,49.282052,-123.086717,3817,8.233832263337376
50611,11477,Eastbound Robson St @ Bidwell St,BUS ZN,49.29023,-123.133644,1925,28.803307263242292
50536,11475,Southbound Granville St @ Drake St,BUS ZN,49.275854,-123.128375,2150,26.697659215277525
51941,11473,Northbound Burrard St @ W 3rd Ave,BUS ZN,49.269179,-123.145428,1458,34.23385095577673
50911,919,Westbound E Broadway @ Lakewood Dr,BUS ZN,49.262356,-123.062394,4927,29.966384463252826
50910,918,Westbound E Broadway @ Kamloops St,BUS ZN,49.262127,-123.055187,5296,38.44112927818809
50907,915,Westbound E Broadway @ Renfrew St,BUS ZN,49.262097,-123.044962,5720,53.15639902094505
50909,917,Westbound E Broadway @ Penticton St,BUS ZN,49.262111,-123.051889,5401,24.523142260312543
50908,916,Westbound E Broadway @ Slocan St,BUS ZN,49.262111,-123.050045,5506,36.89852948334734
50904,911,Westbound E Broadway @ Rupert St,BUS ZN,49.262009,-123.034312,6134,43.56780253336885
50903,910,Westbound E Broadway @ Cassiar St,BUS ZN,49.262053,-123.031548,6235,40.06198934382088
50905,912,Westbound E Broadway @ Windermere St,BUS ZN,49.261989,-123.037125,6039,46.55906406167382
61684,11813,Westbound Great Northern Way @ Thornton St,BUS ZN,49.266906,-123.09471,3489,30.38203001664629
58003,8078,Waterfront Station @ Platform 1,ZN 1,49.285962,-123.111516,2796,77.19239963592509
57996,8071,29th Avenue Station @ Platform 1,ZN 1,49.24431,-123.04608,5663,36.20178622280218
57995,8070,Joyce-Collingwood Station @ Platform 1,ZN 1,49.23843,-123.031759,6209,20.6618621090805
57998,8073,Commercial-Broadway Station @ Platform 3,ZN 1,49.262311,-123.069077,4561,48.63447709961985
57997,8072,Nanaimo Station @ Platform 1,ZN 1,49.248334,-123.055868,5167,56.18040981365221
58000,8075,Stadium-Chinatown Station @ Platform 1,ZN 1,49.279271,-123.109109,2906,74.50246218639833
57999,8074,Main Street-Science World Station @ Platform 1,ZN 1,49.273172,-123.10035,3271,50.896593627124886
58002,8077,Burrard Station @ Platform 1,ZN 1,49.28558,-123.119598,2529,16.233199949443417
58001,8076,Granville Station @ Platform 1,ZN 1,49.283193,-123.115674,2661,19.1312760358555
51208,1217,Northbound Victoria Dr @ E 51 Ave,BUS ZN,49.223425,-123.065653,4732,8.392258693852073
51205,1214,Northbound Victoria Dr @ Brigadoon Ave,BUS ZN,49.21691,-123.065874,4712,28.06039651723444
51206,1215,Northbound Victoria Dr @ Upland Dr,BUS ZN,49.218398,-123.065832,4714,37.78707050991413
51102,1111,Southbound Arbutus St @ Valley Dr,BUS ZN,49.244919,-123.153466,1174,32.557298835187844
51104,1113,Southbound Arbutus St @ W 35 Ave,BUS ZN,49.239992,-123.155467,1114,28.957911569203368
51103,1112,Southbound Arbutus St @ W 32 Ave,BUS ZN,49.242695,-123.15359,1173,37.0273524592856
51106,1115,Southbound West Blvd @ W 39 Ave,BUS ZN,49.236097,-123.155609,1105,38.34957622904771
51105,1114,Southbound West Blvd @ W 37 Ave,BUS ZN,49.23803,-123.155552,1109,30.729705865329013
51108,1117,Southbound West Blvd @ W 43 Ave,BUS ZN,49.232443,-123.155746,1094,31.68707624838376
51107,1116,Southbound West Blvd @ W 41 Ave,BUS ZN,49.234303,-123.155677,1099,31.21640585207013
51210,1219,Northbound Victoria Dr @ Waverley Ave,BUS ZN,49.227465,-123.065556,4746,16.89473896773912
51987,2004,Eastbound E 49 Ave @ Elliott St,BUS ZN,49.224744,-123.054297,5287,32.673510768384624
51988,2005,Eastbound E 49 Ave @ Vivian St,BUS ZN,49.22471,-123.049761,5480,40.41056070310717
60745,12168,Dunbar Loop @ Bay 3,BUS ZN,49.234673,-123.186318,343,38.18860572468708
61360,11262,Southbound Oak St @ W 72 Ave,BUS ZN,49.205381,-123.130464,2061,30.069078371507278
61040,11260,Olympic Village Station @ Bay 1,BUS ZN,49.266245,-123.115944,2649,26.02736541967173
51787,1801,Joyce Station @ Bay 4,BUS ZN,49.237907,-123.031047,6275,48.36553512974241
50199,199,Eastbound W 41 Ave @ Granville St,BUS ZN,49.23422,-123.138484,1737,37.533942641286
50198,198,Westbound W 41 Ave @ Granville St,BUS ZN,49.234391,-123.139167,1670,30.356124612025216
50195,195,Westbound W 41 Ave @ Oak St,BUS ZN,49.234081,-123.128633,2164,44.30969918444698
50197,197,Westbound W 41 Ave @ Cartier St,BUS ZN,49.234332,-123.137,1775,15.824447020903987
50196,196,Westbound W 41 Ave @ Selkirk St,BUS ZN,49.234201,-123.132951,1945,28.57787367255676
50190,190,Southbound Richards St @ Dunsmuir St,BUS ZN,49.281944,-123.115253,2719,74.56484266118245
59040,193,Westbound Robson St @ Granville St,BUS ZN,49.28128,-123.119551,2515,20.923651467453116
60552,12791,Westbound W Broadway @ Hemlock St,BUS ZN,49.263652,-123.134884,1928,86.48260690063626
50843,850,Northbound Fraser St @ E 17 Ave,BUS ZN,49.255774,-123.089737,3694,29.657847299120963
50844,851,Northbound Fraser St @ E 14 Ave,BUS ZN,49.258292,-123.089096,3726,43.932112879321096
50845,852,Northbound Fraser St @ E 12 Ave,BUS ZN,49.260077,-123.089055,3729,41.25302022300628
50846,853,Northbound Fraser St @ E 10 Ave,BUS ZN,49.261837,-123.08903,3731,35.89183300746761
50852,859,Westbound W Hastings St @ Richards St,BUS ZN,49.284435,-123.112367,2765,43.64126954552928
58401,8907,Renfrew Station @ Bay 1,BUS ZN,49.25903,-123.044439,5716,22.586884457250132
60709,1304,Southbound Knight St @ E 17 Ave,BUS ZN,49.255003,-123.076054,4290,35.21705841664085
51296,1307,Southbound Knight St @ E 23 Ave,BUS ZN,49.249651,-123.076243,4279,27.649912169468884
51289,1300,Southbound Clark Dr @ E 6th Ave,BUS ZN,49.264806,-123.07763,4216,43.99552266079962
51290,1301,Southbound Clark Dr @ E Broadway,BUS ZN,49.262018,-123.07773,4212,43.54996469921203
51291,1302,Southbound Clark Dr @ E 12 Ave,BUS ZN,49.259354,-123.077691,4208,31.189683848214745
51297,1308,Southbound Knight St @ E King Edward Ave,BUS ZN,49.248155,-123.076298,4276,38.662381368047605
51298,1309,Southbound Knight St @ E 27 Ave,BUS ZN,49.24614,-123.076373,4273,33.75423589216771
50494,498,Westbound Dundas St @ N Templeton Dr,BUS ZN,49.284871,-123.060143,5026,34.1512574825264
50495,499,Westbound Dundas St @ Wall St,BUS ZN,49.284888,-123.063271,4859,21.74908296429525
50490,494,Westbound McGill St @ N Penticton St,BUS ZN,49.288801,-123.052418,5441,37.361008390307774
50491,495,Southbound N Nanaimo St @ McGill St,BUS ZN,49.288026,-123.05666,5235,35.71575190694669
50492,496,Southbound N Nanaimo St @ Cambridge St,BUS ZN,49.286276,-123.056672,5232,38.81237553180678
50493,497,Westbound Dundas St @ N Garden Dr,BUS ZN,49.284885,-123.057411,5135,26.534199163750312
50489,493,Westbound McGill St @ N Kaslo St,BUS ZN,49.28882,-123.047415,5645,55.59421826159131
51592,1604,Westbound W 16 Ave @ Alma St,BUS ZN,49.258091,-123.18653,348,37.21472879436215
61762,12814,Eastbound W 4th Ave @ Maple St,BUS ZN,49.26801,-123.150017,1287,25.65572141934215
50968,977,Southbound Victoria Dr @ Victoria Diversion,BUS ZN,49.252727,-123.066107,4701,16.448852706459334
50967,976,Southbound Victoria Diversion @ Commercial St,BUS ZN,49.253864,-123.067594,4649,51.91057216850405
58093,974,Southbound Commercial Dr @ E 14 Ave,BUS ZN,49.257485,-123.069954,4553,30.113594710004215
58092,973,Southbound Commercial Dr @ E 12 Ave,BUS ZN,49.259177,-123.06995,4557,43.48767347669838
50963,972,Commercial-Broadway Station @ Bay 2,BUS ZN,49.261929,-123.069913,4561,44.45258576181292
50961,970,Westbound E Hastings St @ Penticton St,BUS ZN,49.281228,-123.052402,5430,35.024451765331314
60570,12811,Eastbound W 4th Ave @ Blenheim St,BUS ZN,49.268415,-123.177316,569,27.148443756816928
59914,10471,Westbound Pacific Blvd @ Cambie St,BUS ZN,49.274606,-123.119683,2531,32.12622816580648
58169,10470,Eastbound Keefer Place @ Taylor St,BUS ZN,49.279326,-123.105758,2987,30.47466925386013
59926,10478,Eastbound National Ave @ Quebec St,BUS ZN,49.27487,-123.101464,3174,33.237630202692166
61800,11871,Victoria Dr @ 54th Avenue Loop,BUS ZN,49.219851,-123.065682,4720,51.29567436876244
51668,1681,Northbound Rupert St @ E 45 Ave,BUS ZN,49.229625,-123.043009,5766,38.039106343860084
51667,1680,Northbound Rupert St @ Kerr St,BUS ZN,49.227532,-123.041348,5867,40.16409154011292
51670,1683,Northbound Rupert St @ E 41 Ave,BUS ZN,49.233276,-123.042996,5769,35.43432498594688
51669,1682,Northbound Rupert St @ E 43 Ave,BUS ZN,49.231367,-123.042993,5768,30.00183200690587
51671,1685,Joyce Station @ Bay 2,BUS ZN,49.238709,-123.032702,6209,81.03375177926546
51675,1689,Northbound Rupert St @ E 29 Ave,BUS ZN,49.244846,-123.033756,6112,36.04233848474605
50315,318,Eastbound W Broadway @ Alma St,BUS ZN,49.264278,-123.185239,356,44.615279975330836
50310,313,Northbound Dunbar St @ W 18 Ave,BUS ZN,49.256755,-123.185003,404,31.75683431301188
50308,311,Northbound Dunbar St @ W 22 Ave,BUS ZN,49.253177,-123.18504,400,36.01596941127123
50307,310,Northbound Dunbar St @ W King Edward Ave,BUS ZN,49.250494,-123.185062,397,49.4249636896132
50314,317,Northbound Alma St @ W 10 Ave,BUS ZN,49.263872,-123.185744,355,45.28580244336424
50313,316,Northbound Alma St @ W 12 Ave,BUS ZN,49.261926,-123.185815,353,32.211255777115085
50312,315,Northbound Dunbar Diversion @ W 14 Ave,BUS ZN,49.260126,-123.184213,411,40.99071917436766
61097,11209,Eastbound W 16 Ave @ Willow St,BUS ZN,49.256969,-123.121578,2408,32.6773483749119
50438,442,Northbound N Nanaimo St @ Dundas St,BUS ZN,49.285176,-123.05639,5230,44.27197277881349
50437,441,Eastbound Dundas St @ Templeton Dr,BUS ZN,49.284738,-123.059274,5026,30.592811060436745
50436,440,Eastbound Dundas St @ Lakewood Dr,BUS ZN,49.284754,-123.061245,4957,27.986494432344088
50443,447,Eastbound McGill St @ N Slocan St,BUS ZN,49.288617,-123.048823,5546,35.95854783932321
50442,446,Eastbound McGill St @ N Penticton St,BUS ZN,49.288627,-123.051421,5441,37.49932755866193
60433,12679,Westbound Kingsway @ Gladstone,BUS ZN,49.24353,-123.061464,4938,24.183619205372203
50440,444,Northbound N Nanaimo St @ Eton St,BUS ZN,49.288013,-123.056367,5235,33.39565605399546
50401,405,Eastbound W 4th Ave @ Fir St,BUS ZN,49.267853,-123.140145,1623,51.442906113164256
60395,12671,Westbound W 41 Ave @ Carnarvon St,BUS ZN,49.234826,-123.174148,669,81.79936087505389
60431,12670,Westbound W 41 Ave @ Churchill St,BUS ZN,49.234437,-123.141226,1590,16.582713639182618
58268,12672,Eastbound W 41 Ave @ Oak St,BUS ZN,49.233818,-123.127728,2164,27.921196882658002
50038,38,Westbound Powell St @ Columbia St,BUS ZN,49.283285,-123.102896,3158,53.70633141830966
50035,35,Waterfront Station @ Bay 4,BUS ZN,49.284786,-123.111191,2820,22.282460326248408
50864,871,Southbound Granville St @ W 68 Ave,BUS ZN,49.209597,-123.140672,1636,102.62286364877151
52019,2036,Westbound E 49 Ave @ Beatrice St,BUS ZN,49.225263,-123.067538,4677,35.45169734279099
52718,2743,Westbound E Hastings St @ Renfrew St,BUS ZN,49.281222,-123.043342,5745,53.437401219995756
52717,2742,Kootenay Loop @ Bay 7,BUS ZN,49.281204,-123.025393,6457,23.11174510705141
52022,2039,Westbound E 49 Ave @ Knight St,BUS ZN,49.225388,-123.077939,4224,49.39465725759338
52021,2038,Westbound E 49 Ave @ Fleming St,BUS ZN,49.225316,-123.073579,4426,33.436561945761795
51085,1094,Northbound Renfrew St @ E 5th Ave,BUS ZN,49.266066,-123.044136,5724,40.91549577343658
51086,1095,Northbound Renfrew St @ E 3rd Ave,BUS ZN,49.26794,-123.044107,5727,41.007821440964584
51087,1096,Northbound Renfrew St @ E 1st Ave,BUS ZN,49.269832,-123.044037,5729,40.412795187052104
51088,1097,Northbound Renfrew St @ Grant St,BUS ZN,49.271682,-123.044039,5733,38.38627613171006
51081,1090,Northbound Renfrew St @ Grandview Hwy,BUS ZN,49.257532,-123.044132,5714,36.82676035000554
51082,1091,Renfrew Station @ Bay 3,BUS ZN,49.259529,-123.0441,5716,38.61523606819242
51083,1092,Northbound Renfrew St @ E Broadway,BUS ZN,49.262253,-123.044105,5720,36.06281301534611
51084,1093,Northbound Renfrew St @ E 7th Ave,BUS ZN,49.264174,-123.04414,5722,36.80474374011848
51089,1098,Northbound Renfrew St @ Charles St,BUS ZN,49.273636,-123.044011,5735,43.14742206772314
51090,1099,Northbound Renfrew St @ Venables St,BUS ZN,49.276287,-123.043972,5738,15.544889793320108
51311,1322,Southbound Knight St @ E 53 Ave,BUS ZN,49.221522,-123.077568,4213,32.20249197252743
51309,1320,Southbound Knight St @ E 49 Ave,BUS ZN,49.224925,-123.077479,4224,43.0541597764479
51310,1321,Southbound Knight St @ E 51 Ave,BUS ZN,49.223084,-123.077505,4217,35.930080016219414
51315,1326,Southbound Knight St @ E 60 Ave,BUS ZN,49.215154,-123.077208,4246,37.03104311079542
51316,1327,Southbound Knight St @ E 62 Ave,BUS ZN,49.213443,-123.077228,4242,36.60202572659809
51313,1324,Southbound Knight St @ E 57 Ave,BUS ZN,49.218344,-123.077162,4251,27.087003995829193
51314,1325,Southbound Knight St @ E 58 Ave,BUS ZN,49.216969,-123.077184,4249,33.9439399427226
51317,1328,Southbound Knight St @ E 63 Ave,BUS ZN,49.212389,-123.077238,4239,46.4366074563163
51318,1329,Knight St Underpass @ SE Marine Dr,BUS ZN,49.21125,-123.076921,4236,24.1892628618642
51374,11438,Eastbound W Hastings St @ Granville St,BUS ZN,49.285445,-123.11425,2725,33.05167433244081
51773,11436,Eastbound Laurel St @ Boundary Rd,BUS ZN,49.254148,-123.022894,6514,59.49943398907779
50951,959,Eastbound E Hastings St @ Renfrew St,BUS ZN,49.281012,-123.043299,5745,56.51520995459235
50950,958,Eastbound E Hastings St @ Kaslo St,BUS ZN,49.281035,-123.046243,5637,34.038388871703916
50943,951,Eastbound E Hastings St @ Commercial Dr,BUS ZN,49.28111,-123.069698,4525,50.813756203924505
58283,950,Eastbound E Hastings St @ McLean Dr,BUS ZN,49.281191,-123.073421,4373,50.484119703062206
50945,953,Eastbound E Hastings St @ Lakewood Dr,BUS ZN,49.281063,-123.061265,4953,32.72053906031523
50944,952,Eastbound E Hastings St @ Victoria Dr,BUS ZN,49.28108,-123.064979,4769,43.25810755648752
50947,955,Eastbound E Hastings St @ Nanaimo St,BUS ZN,49.281059,-123.055828,5226,52.099914047150186
50946,954,Eastbound E Hastings St @ Templeton Dr,BUS ZN,49.281098,-123.059289,5021,34.153545297026376
50949,957,Eastbound E Hastings St @ Slocan St,BUS ZN,49.281041,-123.048668,5538,48.040900478297715
50948,956,Eastbound E Hastings St @ Kamloops St,BUS ZN,49.281035,-123.054098,5323,35.896156979860336
51656,1668,Westbound Champlain Cres @ Matheson Cres,BUS ZN,49.210765,-123.027827,6396,47.639587309856964
51655,1667,Southbound Matheson Cres @ Raintree Court,BUS ZN,49.214374,-123.025642,6469,47.464214293399166
51653,1665,Southbound Matheson Cres @ Borham Cres,BUS ZN,49.216164,-123.025247,6480,145.28335878909243
51652,1664,Westbound Arbor Ave @ Boundary Rd,BUS ZN,49.217523,-123.024331,6480,53.94790972967093
51651,1663,Eastbound Hurst Ave @ Boundary Rd,BUS ZN,49.22009,-123.024161,6499,30.820667255663135
51650,1662,Southbound Frontenac St @ Hurst Ave,BUS ZN,49.220252,-123.026594,6414,18.524200165271715
51649,1661,Southbound Frontenac St @ Hennepin Ave,BUS ZN,49.221872,-123.026506,6413,7.915295980232863
51648,1660,Eastbound E 49 Ave @ Arlington St,BUS ZN,49.223027,-123.027926,6365,28.534515067150977
50585,591,Westbound W 4th Ave @ Macdonald St,BUS ZN,49.268459,-123.168863,786,42.447995783095436
50584,590,Westbound W 4th Ave @ Trafalgar St,BUS ZN,49.268401,-123.164962,897,34.75274768476387
50587,593,Westbound W 4th Ave @ Balaclava St,BUS ZN,49.268528,-123.174217,655,31.72890696613098
50588,594,Westbound W 4th Ave @ Blenheim St,BUS ZN,49.268578,-123.178075,569,30.828153503974754
50591,597,Westbound W 4th Ave @ Wallace St,BUS ZN,49.268794,-123.191056,287,31.677074940608865
50590,596,Westbound W 4th Ave @ Alma St,BUS ZN,49.26871,-123.186254,361,42.4075626539206
50593,599,Westbound W 4th Ave @ 4100 Block,BUS ZN,49.268917,-123.197836,149,117.49944632675088
51534,1546,Eastbound E 22 Ave @ Rupert St,BUS ZN,49.250529,-123.033251,6122,39.74438653985643
50689,696,Westbound E Pender St @ Main St,BUS ZN,49.280463,-123.100688,3289,74.15407193422948
50356,360,Southbound Alma St @ W 6th Ave,BUS ZN,49.266642,-123.185897,359,30.919274932475048
50335,339,Southbound Oak St @ Douglas Cres,BUS ZN,49.254123,-123.127471,2202,35.4217718791257
50331,335,Southbound Oak St @ W 12 Ave,BUS ZN,49.260251,-123.126842,2235,37.89054315652939
50333,337,Southbound Oak St @ W 16 Ave,BUS ZN,49.256751,-123.127351,2210,30.244676688247253
50327,331,Eastbound W Broadway @ Hemlock St,BUS ZN,49.263448,-123.134715,1928,73.24926708835461
50328,332,Eastbound W Broadway @ Alder St,BUS ZN,49.263381,-123.130979,2028,28.43701793066728
51536,1548,Eastbound E 22 Ave @ Kootenay St,BUS ZN,49.250584,-123.025808,6423,31.195282619206605
50483,11227,Northbound Cambie St @ W 7th Ave,BUS ZN,49.264648,-123.114622,2707,24.385988580082213
50412,11221,Southbound Cambie St @ W 7th Ave,BUS ZN,49.264477,-123.114982,2706,42.1004826440835
51372,11220,Eastbound W Pender St @ Jervis St,BUS ZN,49.288846,-123.125208,2275,29.127217565491055
60519,12755,Westbound Cornwall Ave @ Maple St,BUS ZN,49.27258,-123.14994,1294,20.308206081487246
58650,9119,Eastbound W 41 Ave @ Crown St,BUS ZN,49.23468,-123.194664,213,70.14853807034056
51585,1597,Westbound W King Edward Ave @ Yew St,BUS ZN,49.251149,-123.156163,1087,29.547831942596694
60579,12822,Westbound E Broadway @ Quebec,BUS ZN,49.263084,-123.104155,3035,53.454197065381976
60302,10591,Northbound Cambie St @ Dunsmuir St,BUS ZN,49.280182,-123.111842,2803,39.027363443809826
50138,10595,Eastbound W 41 Ave @ Columbia St,BUS ZN,49.23327,-123.111462,2791,43.763300072577366
51337,1348,Northbound Knight St @ E 39 Ave,BUS ZN,49.235113,-123.07681,4258,37.55762586449708
51338,1349,Northbound Knight St @ E 37 Ave,BUS ZN,49.237188,-123.076748,4260,39.030529576658274
51329,1340,Northbound Knight St @ E 57 Ave,BUS ZN,49.218444,-123.076884,4251,36.994255254065344
51331,1342,Northbound Knight St @ E 51 Ave,BUS ZN,49.223765,-123.077214,4217,42.782122839324394
51332,1343,Northbound Knight St @ E 49 Ave,BUS ZN,49.225701,-123.077098,4224,47.62355481309584
51333,1344,Northbound Knight St @ E 47 Ave,BUS ZN,49.227974,-123.077067,4230,36.42640409463762
51334,1345,Northbound Knight St @ E 45 Ave,BUS ZN,49.229335,-123.077025,4234,37.90313008939111
51335,1346,Northbound Knight St @ E 43 Ave,BUS ZN,49.230966,-123.076961,4243,38.74013941738208
51336,1347,Northbound Knight St @ E 41 Ave,BUS ZN,49.233088,-123.076848,4252,43.86903511050042
57971,8046,29th Avenue Station @ Platform 2,ZN 1,49.244236,-123.046136,5663,45.37944699390523
51017,1026,Northbound Arbutus St @ W 51 Ave,BUS ZN,49.225393,-123.155125,1119,46.73904805145368
51012,1021,Northbound Angus Dr @ W 61 Ave,BUS ZN,49.215648,-123.148305,1338,41.75351896907888
51020,1029,Northbound West Blvd @ W 45 Ave,BUS ZN,49.231163,-123.155603,1088,34.77760105211582
51019,1028,Northbound West Blvd @ W 46 Ave,BUS ZN,49.230145,-123.155632,1085,30.186924240076372
58893,9307,Westbound W Pender St @ Burrard St,BUS ZN,49.286833,-123.118031,2588,31.985561265752775
51633,1645,Northbound Tyne St @ E 45 Ave,BUS ZN,49.228978,-123.031961,6197,32.81011669990188
51632,1644,Northbound Tyne St @ E 47 Ave,BUS ZN,49.226688,-123.032071,6196,32.199739941805205
51635,1647,Northbound Joyce St @ Marmion Ave,BUS ZN,49.231836,-123.03734,5992,31.157302224649303
51634,1646,Northbound Joyce St @ E 45 Ave,BUS ZN,49.229581,-123.037333,5990,34.99776112143277
51629,1641,Westbound E 49 Ave @ Boundary Rd,BUS ZN,49.222065,-123.024529,6502,9.895651401063104
51628,1640,Northbound Boundary Rd @ Hurst Ave,BUS ZN,49.220212,-123.023547,6532,8.364596267077081
51631,1643,Northbound Tyne St @ E 49 Ave,BUS ZN,49.225083,-123.032151,6194,17.27697905699846
51630,1642,Westbound E 49 Ave @ Arlington St,BUS ZN,49.223442,-123.028307,6365,25.274290246071224
51636,1648,Northbound Joyce St @ Kingsway,BUS ZN,49.234391,-123.03552,6076,36.667242948286045
50574,579,Westbound W 10 Ave @ Courtenay St,BUS ZN,49.263781,-123.200725,144,56.111269758287094
50573,578,Westbound W 10 Ave @ Camosun St,BUS ZN,49.263725,-123.197332,176,31.14092775422729
50568,573,Westbound W Broadway @ Collingwood St,BUS ZN,49.264377,-123.182257,476,31.962771994811757
50567,572,Westbound W Broadway @ Blenheim St,BUS ZN,49.264311,-123.178243,562,31.3214940765304
50566,571,Westbound W Broadway @ Balaclava St,BUS ZN,49.264241,-123.174408,650,33.50476450199563
50565,570,Westbound W Broadway @ Bayswater St,BUS ZN,49.264221,-123.171711,705,24.9823538166206
50572,577,Westbound W 10 Ave @ Crown St,BUS ZN,49.263683,-123.194468,209,43.4258559734449
50571,576,Westbound W 10 Ave @ Wallace St,BUS ZN,49.263644,-123.191417,280,42.69957843834415
50043,8535,Burrard Station @ Bay 1,BUS ZN,49.285306,-123.119982,2508,17.00711257103954
52967,10661,Southbound N Esmond Ave @ McGill St,BUS ZN,49.287961,-123.020951,6557,183.34665622065353
51993,2010,Eastbound Imperial St @ Boundary Rd,BUS ZN,49.221875,-123.022768,6535,60.24658969925468
50355,359,Southbound Alma St @ W 4th Ave,BUS ZN,49.268214,-123.18585,361,46.3922406191328
50354,358,Eastbound W 4th Ave @ Alma St,BUS ZN,49.268538,-123.185205,361,36.070215199321915
61138,11071,Westbound NW Marine Dr @ W 4th Ave,BUS ZN,49.268938,-123.200648,131,56.8570346336996
60525,12771,Eastbound Pacific St @ Thurlow St,BUS ZN,49.278412,-123.13473,1903,30.572440118655507
60526,12772,Westbound Beach Ave @ Bidwell St,BUS ZN,49.284303,-123.142591,1548,29.0343426813436
50015,10441,Eastbound Pacific Blvd @ Drake St,BUS ZN,49.273429,-123.123135,2364,39.333067318973335
50913,11606,Commercial-Broadway Station @ Bay 5,BUS ZN,49.262416,-123.06875,4561,73.24835162753332
52054,2071,Northbound Dunbar St @ W 43 Ave,BUS ZN,49.233182,-123.18528,376,36.89565498644351
52053,2070,Northbound Dunbar St @ SW Marine Dr,BUS ZN,49.231041,-123.185323,371,45.003329735517646
52058,2075,Westbound Lameys Mill Rd @ Sitka Square,BUS ZN,49.266459,-123.129345,2120,25.063767449664844
52057,2074,Heather Square @ Bay 1,BUS ZN,49.266191,-123.120109,2470,33.772397003595316
50757,8394,Northbound Granville St @ W 71 Ave,BUS ZN,49.207431,-123.1404,1630,41.961040129006
58280,1366,Westbound Terminal Ave @ 300 Block,BUS ZN,49.272363,-123.096638,3477,95.44426716713511
51356,1367,Northbound Clark Dr @ E 1st Ave,BUS ZN,49.269991,-123.077215,4225,37.21137901050552
51353,1364,Westbound Terminal Ave @ Begg St,BUS ZN,49.270771,-123.087153,3788,23.25268373338701
51354,1365,Westbound Terminal Ave @ Thornton St,BUS ZN,49.271779,-123.093108,3574,20.09896863656568
51351,1362,Northbound Clark Dr @ E 6th Ave,BUS ZN,49.264845,-123.077316,4216,38.097087556609054
51352,1363,Northbound Clark Dr @ E 3rd Ave,BUS ZN,49.268147,-123.077256,4222,34.458556010167214
51349,1360,Northbound Clark Dr @ E 11 Ave,BUS ZN,49.260268,-123.077343,4210,30.998588720055594
51350,1361,Northbound Clark Dr @ E Broadway,BUS ZN,49.262754,-123.077367,4212,42.942638442465515
51357,1368,Northbound Clark Dr @ Grant St,BUS ZN,49.271749,-123.077197,4227,28.87136048426925
51358,1369,Northbound Clark Dr @ William St,BUS ZN,49.274264,-123.077153,4231,27.504500751629845
50296,299,Westbound W 41 Ave @ Blenheim St,BUS ZN,49.234831,-123.179103,528,30.25306106926888
50293,296,Westbound W 41 Ave @ Mackenzie St,BUS ZN,49.234819,-123.170795,733,41.14653634980956
50294,297,Westbound W 41 Ave @ Carnarvon St,BUS ZN,49.23482,-123.173542,669,38.29378647519844
50291,294,Westbound W 41 Ave @ Larch St,BUS ZN,49.234767,-123.163165,929,32.950330843046515
50292,295,Westbound W 41 Ave @ Macdonald St,BUS ZN,49.23481,-123.167912,829,40.9414969985698
50290,293,Westbound W 41 Ave @ Vine St,BUS ZN,49.234721,-123.160343,997,32.58319891693458
50288,291,Westbound W 41 Ave @ Maple St,BUS ZN,49.234633,-123.152449,1230,32.75470317042852
51611,1623,Southbound Kerr St @ E 52 Ave,BUS ZN,49.221906,-123.041297,5857,18.38063240331276
51976,1993,Eastbound E 49 Ave @ Prince Albert St,BUS ZN,49.225373,-123.08761,3752,26.925221071527236
51608,1620,Southbound Rupert St @ Kerr St,BUS ZN,49.227481,-123.041563,5867,56.56482035276676
51615,1627,Eastbound Rosemont Dr @ Kerr St,BUS ZN,49.21544,-123.040483,5826,73.97822951221579
51977,1994,Eastbound E 49 Ave @ Windsor St,BUS ZN,49.225337,-123.084766,3871,35.016665815064016
51613,1625,Southbound Kerr St @ E 56 Ave,BUS ZN,49.218403,-123.041467,5847,27.52857731262514
51612,1624,Southbound Kerr St @ E 54 Ave,BUS ZN,49.219855,-123.041405,5853,36.76811969506109
51982,1999,Eastbound E 49 Ave @ Commercial St,BUS ZN,49.22514,-123.068504,4625,9.680903965246603
51981,1998,Eastbound E 49 Ave @ Argyle St,BUS ZN,49.225164,-123.071276,4472,35.021799219467425
51617,1629,Southbound Butler St @ Rosemont Dr,BUS ZN,49.216166,-123.034529,6090,35.606882701134296
51616,1628,Eastbound Rosemont Dr @ 3200 Block,BUS ZN,49.215571,-123.036746,6002,6.403816912695356
50554,559,Southbound Granville St @ W 37 Ave,BUS ZN,49.237706,-123.139593,1677,39.90667471520321
50553,558,Southbound Granville St @ W 35 Ave,BUS ZN,49.239615,-123.139528,1679,38.232192486646866
50552,557,Southbound Granville St @ W 33 Ave,BUS ZN,49.241525,-123.139454,1684,39.08887516570637
50551,556,Southbound Granville St @ W 32 Ave,BUS ZN,49.243251,-123.139408,1688,43.65844789129251
50546,551,Southbound Granville St @ Matthews Ave,BUS ZN,49.252781,-123.139073,1706,40.770731642697726
50545,550,Southbound Granville St @ Angus Dr,BUS ZN,49.254178,-123.13903,1707,46.0827860541475
50547,552,Southbound Granville St @ Laurier Ave,BUS ZN,49.2505,-123.139186,1702,38.75916067297167
51190,1199,Westbound Kingsway @ Miller St,BUS ZN,49.247137,-123.06911,4603,23.893616810586057
51189,1198,Westbound Kingsway @ Victoria Dr,BUS ZN,49.245543,-123.065671,4799,50.48980581860004
51182,1191,Westbound E 41 Ave @ Killarney St,BUS ZN,49.23303,-123.046378,5660,35.08206058681964
51181,1190,Westbound E 41 Ave @ Rupert St,BUS ZN,49.233057,-123.043713,5769,47.39276551695805
51184,1193,Westbound Kingsway @ McKinnon St,BUS ZN,49.235237,-123.038053,5983,28.698757569884975
51183,1192,Westbound E 41 Ave @ Earles St,BUS ZN,49.232858,-123.049155,5564,30.012365558946556
51186,1195,Westbound Kingsway @ Rupert St,BUS ZN,49.236114,-123.04296,5786,51.750239822561724
51185,1194,Westbound Kingsway @ Spencer St,BUS ZN,49.235933,-123.041047,5871,24.648602020696174
51187,1196,Westbound Kingsway @ Fairmont St,BUS ZN,49.236931,-123.046942,5632,32.708226902351356
50454,458,Northbound Oak St @ Devonshire Cres,BUS ZN,49.244894,-123.127493,2176,49.82693497843658
50455,459,Northbound Oak St @ W 27 Ave,BUS ZN,49.247506,-123.12749,2184,32.32908343268935
50446,450,Eastbound McGill St @ N Renfrew St,BUS ZN,49.288595,-123.0434,5753,48.604237403124365
50449,453,Westbound McGill St @ N Renfrew St,BUS ZN,49.288825,-123.044601,5753,42.224630843048665
50451,455,Northbound Oak St @ W 38 Ave,BUS ZN,49.237021,-123.12785,2166,32.45320313978553
50453,457,Northbound Oak St @ W 33 Ave,BUS ZN,49.241748,-123.12769,2171,36.41345725522024
60397,12669,Westbound W 41 Ave @ Oak St,BUS ZN,49.234095,-123.129021,2164,71.79929072855616
50367,371,Southbound Dunbar St @ W 27 Ave,BUS ZN,49.247813,-123.185322,394,29.25129383155179
50366,370,Southbound Dunbar St @ W King Edward Ave,BUS ZN,49.249684,-123.185302,397,42.36374974757777
50369,373,Southbound Dunbar St @ W 31 Ave,BUS ZN,49.243962,-123.185351,390,35.22844496362041
50371,375,Southbound Dunbar St @ W 35 Ave,BUS ZN,49.240149,-123.185397,386,36.65341977031572
50370,374,Southbound Dunbar St @ W 33 Ave,BUS ZN,49.242056,-123.185368,388,35.24921401064901
50372,376,Southbound Dunbar St @ W 37 Ave,BUS ZN,49.238349,-123.185425,384,26.79461918354831
60404,12665,Northbound Joyce St @ Church St,BUS ZN,49.234646,-123.03528,6083,18.10101088526187
60396,12663,Eastbound W 41 Ave @ Carnarvon St,BUS ZN,49.23467,-123.173495,669,34.69117206945513
60417,12712,Westbound W 12th Ave @ Heather St,BUS ZN,49.260557,-123.12041,2507,34.11604267445721
60418,12713,Westbound W 12th Ave @ Cambie St,BUS ZN,49.260482,-123.11559,2695,47.4871495790453
60415,12710,Westbound W 12th Ave @ Laurel St,BUS ZN,49.260622,-123.124667,2320,29.668545273751672
60416,12711,Eastbound W 12th Ave @ Heather St,BUS ZN,49.260394,-123.120306,2507,26.34362628974991
61074,10976,Southbound Main St @ Powell St,BUS ZN,49.282699,-123.099733,3298,47.78845636017437
50878,11596,Eastbound E Broadway @ Ontario St,BUS ZN,49.262911,-123.104471,3035,31.30465747924108
61218,2051,Langara-49th Station @ Bay 2,BUS ZN,49.226178,-123.116035,2627,33.01051988399054
52033,2050,Westbound W 49 Ave @ Alberta St,BUS ZN,49.226074,-123.113387,2750,34.10588788838344
52036,2053,Westbound W 49 Ave @ Laurel St,BUS ZN,49.226538,-123.125587,2282,34.55275392019408
52035,2052,Westbound W 49 Ave @ Tisdall St,BUS ZN,49.226382,-123.121438,2418,24.414381800618795
52038,2055,Westbound W 49 Ave @ Montgomery St,BUS ZN,49.226761,-123.13243,2001,39.73273404861297
52037,2054,Westbound W 49 Ave @ Oak St,BUS ZN,49.226658,-123.128988,2152,51.440228627999986
52039,2056,Westbound W 49 Ave @ Hudson St,BUS ZN,49.22688,-123.135533,1865,35.29867211922791
50714,11622,Westbound E 41st Ave @ Main St,BUS ZN,49.233193,-123.101267,3193,21.692726555895327
58614,10620,Eastbound E Broadway St @ Fraser St,BUS ZN,49.26236,-123.088379,3732,53.93026289433389
50797,804,Southbound Fraser St @ E 55 Ave,BUS ZN,49.219642,-123.091056,3648,36.00808789948282
60223,12487,Northbound Fraser St @ E 20 Ave,BUS ZN,49.253266,-123.089851,3692,50.42577765359546
58183,8621,Eastbound SE Marine Dr @ 2600 Block,BUS ZN,49.207204,-123.053335,5362,12.000651062022222
58145,8622,Westbound Kingsway @ E Broadway,BUS ZN,49.263296,-123.099681,3306,50.9368268496603
59318,9989,Westbound E 49 Ave @ Tyne St,BUS ZN,49.224736,-123.032636,6193,33.46471625548685
59317,9987,Eastbound E 49 Ave @ Kerr St,BUS ZN,49.224659,-123.040479,5862,41.01940743538165
61124,11021,Westbound W 16 Ave @ Oak St,BUS ZN,49.257181,-123.12688,2211,24.271002921037407
61118,11020,Westbound E 33 Ave @ Main St,BUS ZN,49.240577,-123.101925,3196,34.15262235861331
61128,11023,Westbound W 16 Ave @ Arbutus St,BUS ZN,49.257372,-123.153431,1178,22.43651365554761
61116,11022,Westbound E 33 Ave @ Fraser St,BUS ZN,49.240373,-123.090765,3674,32.51489021345448
50410,414,Southbound Cambie St @ W Hastings St,BUS ZN,49.282211,-123.109799,2883,38.11471624845096
50411,415,Eastbound Nelson St @ Cambie St,BUS ZN,49.275788,-123.117719,2578,44.97364609427057
50406,410,Eastbound W Pender St @ Thurlow St,BUS ZN,49.287073,-123.119204,2483,99.14896870457852
51373,1385,Eastbound W Pender St @ Bute St,BUS ZN,49.288213,-123.123062,2370,28.78437916348586
58143,1387,Kootenay Loop @ Bay 8,BUS ZN,49.281026,-123.024952,6457,53.79030790302811
50414,418,Southbound Cambie St @ W 12 Ave,BUS ZN,49.260113,-123.115144,2695,33.443604308149425
50415,419,Southbound Cambie St @ W 16 Ave,BUS ZN,49.256555,-123.115252,2690,40.850562813109
51370,1382,Eastbound W Pender St @ Nicola St,BUS ZN,49.289898,-123.128771,2128,24.048652732573206
51371,1383,Eastbound W Pender St @ Broughton St,BUS ZN,49.289364,-123.127117,2204,31.034494885464593
51762,1776,Southbound Boundary Rd @ Douglas Rd,BUS ZN,49.27654,-123.02375,6546,98.73251936301097
51765,1779,Southbound Boundary Rd @ E 1st Ave,BUS ZN,49.26913,-123.023801,6530,37.869270336467544
51764,1778,Southbound Boundary Rd @ Kitchener St,BUS ZN,49.271739,-123.023795,6531,160.09370995540485
51834,1848,Eastbound SE Marine Dr @ Nanaimo St,BUS ZN,49.207215,-123.059043,5033,43.908065868955504
60006,12101,Eastbound W Broadway @ Columbia St,BUS ZN,49.26302,-123.10905,2885,29.77326058824003
51800,1814,Westbound SE Marine Dr @ Gladstone St,BUS ZN,49.208533,-123.062381,4899,19.046268093282855
51803,1817,Northbound Nanaimo St @ Fraserview Dr,BUS ZN,49.212049,-123.059294,5035,36.16175371198686
51796,1810,Westbound SE Marine Dr @ Kerr St,BUS ZN,49.208162,-123.042926,5792,50.221392502560334
51797,1811,Westbound SE Marine Dr @ Jellicoe St,BUS ZN,49.207743,-123.048165,5575,36.46171192387087
51798,1812,Westbound SE Marine Dr @ Elliott St,BUS ZN,49.207187,-123.057208,5151,28.902052309155803
51804,1818,Northbound Muirfield Dr @ Scarboro Ave,BUS ZN,49.213192,-123.057069,5150,36.04687911025511
51805,1819,Northbound Muirfield Dr @ Bobolink Ave,BUS ZN,49.214723,-123.055961,5247,40.03004594135474
51597,1609,Westbound W 16 Ave @ Blanca St,BUS ZN,49.258508,-123.21457,8,61.58516025409689
51596,1608,Westbound W 16 Ave @ Sasamat St,BUS ZN,49.258432,-123.20978,52,39.522107669908536
51962,1979,Eastbound W 49 Ave @ Montgomery St,BUS ZN,49.226598,-123.131458,2001,33.14447722050927
51961,1978,Eastbound W 49 Ave @ Hudson St,BUS ZN,49.226708,-123.134675,1865,29.876904957670934
51589,1601,Westbound W King Edward Ave @ Balaclava St,BUS ZN,49.250163,-123.176132,624,37.39945385236214
51958,1975,Eastbound W 49 Ave @ Marguerite St,BUS ZN,49.226972,-123.144546,1476,31.957441202532255
51957,1974,Eastbound W 49 Ave @ Angus Dr,BUS ZN,49.22701,-123.147554,1368,28.25044275100546
51954,1971,Eastbound W 49 Ave @ Arbutus St,BUS ZN,49.227103,-123.15547,1124,24.82650216706888
61149,11101,Southbound Cambie St @ W 14 Ave,BUS ZN,49.25846,-123.115193,2692,32.45135047068967
51892,1906,Westbound E 41 Ave @ Wales St,BUS ZN,49.232871,-123.05213,5453,35.65106057966935
51890,1904,Eastbound W 41 Ave @ Highbury St,BUS ZN,49.234704,-123.187956,301,29.638211890878132
51889,1903,Eastbound W 41 Ave @ Wallace St,BUS ZN,49.234701,-123.190529,258,29.37307659000669
51887,1901,Eastbound SW Marine Dr @ Kullahun Dr,BUS ZN,49.236996,-123.204972,89,56.829330444776936
60502,12730,Northbound Denman St @ Comox St,BUS ZN,49.288812,-123.139345,1673,29.15104782972946
60504,12732,Eastbound Robson St @ Broughton St,BUS ZN,49.287679,-123.129709,2095,29.51205588384967
50133,12737,Westbound W 41st Ave @ Willow St,BUS ZN,49.233946,-123.124174,2352,28.710936473481038
51953,1970,Eastbound W 49 Ave @ Yew St,BUS ZN,49.227149,-123.15842,1026,27.193218333986042
60529,12768,Westbound Beach Ave @ Cardero St,BUS ZN,49.283023,-123.1416,1575,19.387465201953937
60534,12763,Broadway-City Hall Station   @ Bay 6,BUS ZN,49.263181,-123.117852,2593,27.697393461424475
60472,12761,Eastbound Sawmill Cres @ River District Crossing,BUS ZN,49.205803,-123.030484,6233,39.81544220534146
60535,12764,Broadway-City Hall Station @ Bay 1,BUS ZN,49.26315,-123.116587,2593,66.37742727926435
51473,11643,Westbound W Pender St @ Broughton St,BUS ZN,49.289741,-123.12775,2204,31.712579031348543
53392,11646,Westbound W Hastings St @ Abbott St,BUS ZN,49.282004,-123.10684,2941,24.734937756962385
59042,1018,63 Ave Loop @ Granville St,BUS ZN,49.21392,-123.140853,1641,39.32420184235026
51010,1019,Westbound W 64 Ave @ Adera St,BUS ZN,49.213261,-123.144003,1513,36.2984242432006
58065,1016,Northbound Seymour St @ W Georgia St,BUS ZN,49.281477,-123.117549,2612,51.90188661291524
51008,1017,Southbound Granville St @ W 45 Ave,BUS ZN,49.230342,-123.139857,1668,31.68271628960292
51004,1013,Northbound Seymour St @ Davie St,BUS ZN,49.276811,-123.124629,2285,53.24737496986584
61143,11002,Bus Stop @ Spanish Banks Loop,BUS ZN,49.276328,-123.215494,26,77.39235823407174
61106,11007,Eastbound E 33 Ave @ Knight St,BUS ZN,49.240146,-123.075958,4265,31.973918317409023
61108,11009,Eastbound E 33 Ave @ Victoria Dr,BUS ZN,49.239826,-123.06484,4789,40.84277953348109
50435,439,Eastbound Powell St @ Victoria Dr,BUS ZN,49.284771,-123.065065,4778,31.727884137719855
50433,437,Eastbound Powell St @ Commercial Dr,BUS ZN,49.283885,-123.069837,4529,35.16234926805228
50431,435,Eastbound Powell St @ Clark Dr,BUS ZN,49.283029,-123.076625,4257,30.152942957309655
50429,433,Eastbound Powell St @ Glen Dr,BUS ZN,49.282672,-123.081697,4061,33.75099599670326
50426,430,Eastbound E Cordova St @ Dunlevy Ave,BUS ZN,49.282136,-123.094846,3484,35.546764705774464
50427,431,Eastbound E Cordova St @ Princess Ave,BUS ZN,49.282067,-123.091063,3617,27.24869121659549
51003,11348,Northbound Cambie St @ W 42 Ave,BUS ZN,49.232875,-123.115999,2640,41.22156054224397
50999,11349,Langara-49th Station @ Bay 1,BUS ZN,49.226473,-123.116241,2627,44.013440611815994
52219,2241,Westbound SW Marine Dr @ Laurel St,BUS ZN,49.206184,-123.126813,2246,38.098604495016716
51793,12691,Southbound Matheson Cres @ Champlain Cres,BUS ZN,49.210359,-123.027535,6396,30.296605443397077
51839,12690,Northbound Matheson Cres @ SE Marine Dr,BUS ZN,49.208301,-123.030733,6246,29.038007022249893
51042,1051,Southbound Renfrew St @ E 1st Ave,BUS ZN,49.269159,-123.044397,5729,38.91039173304282
51043,1052,Southbound Renfrew St @ E 4th Ave,BUS ZN,49.266425,-123.044405,5726,29.11967910001094
51045,1054,Southbound Renfrew St @ E 8th Ave,BUS ZN,49.262644,-123.044459,5721,36.57673951848104
51046,1055,Southbound Renfrew St @ E Broadway,BUS ZN,49.261461,-123.04446,5720,55.759827897816606
51048,1057,Southbound Renfrew St @ Grandview Hwy,BUS ZN,49.257863,-123.044471,5715,36.7502222108141
51006,9366,Northbound Seymour St @ Nelson St,BUS ZN,49.278835,-123.121579,2414,39.81051358681914
51818,1832,29th Avenue Station @ Bay 1,BUS ZN,49.244269,-123.045608,5663,41.45881882335822
51819,1833,Southbound Clarendon St @ E 41 Ave,BUS ZN,49.232504,-123.055437,5266,35.47688292586718
51816,1830,Northbound Clarendon St @ E 37 Ave,BUS ZN,49.237621,-123.055365,5263,27.148815181614818
51821,1835,Southbound Elliott St @ E 45 Ave,BUS ZN,49.229145,-123.054924,5281,26.16525599452632
51824,1838,Southbound Elliott St @ E 49 Ave,BUS ZN,49.224553,-123.054884,5287,30.64918599690156
51825,1839,Southbound Elliott St @ E 51 Ave,BUS ZN,49.222288,-123.054911,5286,28.919505999485104
52135,2155,Eastbound SE Marine Dr @ St. George St,BUS ZN,49.210918,-123.093606,3566,23.253493117237426
52136,2156,Eastbound SE Marine Dr @ Fraser St,BUS ZN,49.210909,-123.090507,3623,43.504389643350876
52132,2152,Eastbound SE Marine Dr @ Ontario St,BUS ZN,49.21214,-123.106006,3006,37.59970878611375
52133,2153,Eastbound SE Marine Dr @ Main St,BUS ZN,49.210807,-123.101511,3143,57.706126714556326
52138,2158,Eastbound SE Marine Dr @ Ross St,BUS ZN,49.211036,-123.083514,3940,22.349378446306027
51942,1959,Southbound Burrard St @ W 3rd Ave,BUS ZN,49.268549,-123.145798,1458,40.79065913999545
51973,1990,Eastbound E 49 Ave @ St. George St,BUS ZN,49.225455,-123.093656,3535,31.255202793575897
51471,1483,Westbound W Pender St @ Thurlow St,BUS ZN,49.287731,-123.120865,2483,41.925555032403786
51470,1482,Kootenay Loop @ Bay 6,BUS ZN,49.281212,-123.026407,6457,53.76367252960927
51469,1481,Westbound Hastings St @ Esmond Ave,BUS ZN,49.281222,-123.021845,6549,125.20048640658426
51475,1487,Westbound W Georgia St @ Denman St,BUS ZN,49.292951,-123.134018,1930,45.52343128455616
51472,1484,Westbound W Pender St @ Bute St,BUS ZN,49.288565,-123.123694,2370,31.507419051197804
51476,1488,Westbound W Georgia St @ Gilford St,BUS ZN,49.294006,-123.13563,1862,50.041693227623405
59837,10611,Northbound Main St @ E 22 Ave,BUS ZN,49.251452,-123.100866,3224,32.27372667799611
51261,1271,Northbound Mackenzie St @ W 34 Ave,BUS ZN,49.241595,-123.170144,740,26.863200284637756
58613,10619,Westbound E Broadway @ Fraser St,BUS ZN,49.262593,-123.09009,3641,69.8477413786588
50515,519,Westbound Powell St @ Jackson Ave,BUS ZN,49.283146,-123.093725,3572,28.91552131786153
50514,518,Westbound Powell St @ Heatley Ave,BUS ZN,49.283076,-123.089941,3710,37.74527308274768
50507,511,Westbound E Hastings St @ Dunlevy Ave,BUS ZN,49.281356,-123.095847,3483,36.76743189889738
50506,510,Westbound E Hastings St @ Jackson Ave,BUS ZN,49.281321,-123.093904,3568,37.272834179303
50508,512,Westbound Powell St @ Commercial Dr,BUS ZN,49.283837,-123.070862,4529,39.60358243937904
50513,517,Westbound Powell St @ Hawks Ave,BUS ZN,49.28303,-123.087522,3809,34.260788270102324
50512,516,Westbound Powell St @ Glen Dr,BUS ZN,49.282792,-123.081659,4061,35.00106240181595
51217,1226,Northbound Commercial Dr @ Findlay St,BUS ZN,49.254682,-123.068394,4649,56.275754759256486
51216,1225,Northbound Victoria Diversion @ Victoria Dr,BUS ZN,49.253274,-123.066572,4684,37.57677644195224
51215,1224,Northbound Victoria Dr @ E 22 Ave,BUS ZN,49.250596,-123.064898,4805,35.74361005965221
50621,627,Southbound Cambie St @ W 41 Ave,BUS ZN,49.234,-123.116425,2641,54.45602276296757
51213,1222,Northbound Victoria Dr @ E 26 Ave,BUS ZN,49.247959,-123.064952,4801,37.87239826581901
51212,1221,Northbound Victoria Dr @ E 43 Ave,BUS ZN,49.231503,-123.065432,4759,32.12054741381845
51211,1220,Northbound Victoria Dr @ E 45 Ave,BUS ZN,49.229847,-123.065483,4753,43.215978077679516
50622,628,Westbound Robson St @ Hamilton St,BUS ZN,49.279145,-123.116259,2659,43.02559079539103
51220,1229,Northbound Commercial Dr @ E 12 Ave,BUS ZN,49.259948,-123.069673,4557,44.5906516750208
51219,1228,Northbound Commercial Dr @ E 14 Ave,BUS ZN,49.258015,-123.069745,4553,30.783256493330672
58054,8297,Heather Square @ Bay 2,BUS ZN,49.266296,-123.120135,2488,26.298097773216647
59930,10431,Southbound Hudson St @ SW Marine Dr,BUS ZN,49.202765,-123.134919,1876,33.680696836437825
52217,2239,Westbound SW Marine Dr @ Ash St,BUS ZN,49.209141,-123.119749,2476,44.77878068920458
52209,2231,Westbound SE Marine Dr @ Chester St,BUS ZN,49.211147,-123.089925,3699,29.395858630725666
52211,2233,Westbound SE Marine Dr @ Prince Edward St,BUS ZN,49.211024,-123.097713,3364,26.025910514760007
52210,2232,Westbound SE Marine Dr @ Buscombe St,BUS ZN,49.211151,-123.095708,3475,28.229018961227492
52213,2235,Westbound SW Marine Dr @ Ontario St,BUS ZN,49.212459,-123.107012,2961,38.3787479013389
52212,2234,Westbound SE Marine Dr @ Main St,BUS ZN,49.211554,-123.103214,3144,80.59476584644219
52214,2236,Westbound SW Marine Dr @ Manitoba St,BUS ZN,49.212212,-123.110409,2852,32.99972409466294
51619,1631,Southbound Champlain Cres @ Langford Ave,BUS ZN,49.214195,-123.02994,6281,166.26769726067943
56958,7025,Northbound Knight St Bridge Offramp @ SE Marine Dr,BUS ZN,49.210846,-123.075497,4302,27.982262256302427
51029,1038,Northbound Arbutus St @ Nanton Ave,BUS ZN,49.247961,-123.153085,1176,38.620925662397944
51030,1039,Northbound Arbutus St @ W King Edward Ave,BUS ZN,49.251937,-123.152909,1180,45.832748358093525
51023,1032,Northbound West Blvd @ W 39 Ave,BUS ZN,49.236779,-123.155392,1105,39.17635676535614
51024,1033,Northbound West Blvd @ W 37 Ave,BUS ZN,49.238609,-123.155335,1109,35.83192730328341
51021,1030,Northbound West Blvd @ W 43 Ave,BUS ZN,49.232961,-123.155537,1094,27.9609044598756
51022,1031,Northbound West Blvd @ W 41 Ave,BUS ZN,49.2349,-123.155429,1099,37.62050545507641
51027,1036,Northbound Arbutus St @ W 33 Ave,BUS ZN,49.242436,-123.153359,1172,38.46256502106944
51028,1037,Northbound Arbutus St @ Valley Dr,BUS ZN,49.245478,-123.153186,1174,32.8398769855011
51026,1035,Northbound Arbutus St @ Quilchena Cres,BUS ZN,49.241393,-123.153894,1170,31.709034050311843
51938,11069,Westbound NW Marine Dr @ Tolmie St,BUS ZN,49.275093,-123.212054,49,30.65293264786315
61133,11068,Southbound Trimble St @ Belmont Ave,BUS ZN,49.273327,-123.205803,95,36.09066527656589
61134,11061,Westbound E 33 Ave @ Inverness St,BUS ZN,49.240296,-123.080645,4073,30.024851667114568
61135,11060,Eastbound E 33 Ave @ Inverness St,BUS ZN,49.240161,-123.079787,4084,25.81794698624176
61092,11063,Eastbound W 16 Ave @ Vine St,BUS ZN,49.25729,-123.157508,1050,29.01359905192473
61103,11062,Eastbound E 33 Ave @ Prince Edward St,BUS ZN,49.240343,-123.096513,3426,29.468016757341378
51935,11065,Northbound NW Marine Dr @ Belmont Ave,BUS ZN,49.274065,-123.205593,95,47.45078345137859
61105,11064,Eastbound E 33 Ave @ Somerville St,BUS ZN,49.240204,-123.085349,3851,25.801834390760362
61125,11067,Westbound W 15 Ave @ Birch St,BUS ZN,49.257964,-123.134406,1917,35.86969815628931
51906,11066,Eastbound NW Marine Dr @ Tolmie St,BUS ZN,49.274742,-123.211352,49,33.528085047566655
59991,11495,Westbound Expo Blvd @ Abbott St,BUS ZN,49.278791,-123.108015,2927,34.08555810048273
51703,10813,Southbound Rupert St @ E 1st Ave,BUS ZN,49.269052,-123.033883,6144,47.15883214348527
59583,10812,Southbound Main St @ E 49 Ave,BUS ZN,49.225333,-123.10178,3180,37.98912076675904
50478,10810,Northbound Cambie St @ W 18 Ave,BUS ZN,49.255125,-123.115019,2686,27.17591535332567
59581,10816,Northbound Main St @ E 16 Ave,BUS ZN,49.256943,-123.101068,3208,41.83437383854416
51704,10815,Southbound Rupert St @ E 3rd Ave,BUS ZN,49.267232,-123.033871,6142,36.37497426832552
59580,10814,Southbound Main St @ E 2nd Ave,BUS ZN,49.268688,-123.100898,3241,54.38997293454744
51836,1850,Eastbound SE Marine Dr @ Jellicoe St,BUS ZN,49.207592,-123.047214,5575,34.653562210756306
51837,1851,Eastbound SE Marine Dr @ Kerr St,BUS ZN,49.207748,-123.044803,5792,190.23112355699027
51838,1852,Eastbound SE Marine Dr @ Fieldstone Ave,BUS ZN,49.208333,-123.035248,6013,186.8730534386494
51842,1856,Burrard Station @ Bay 4,BUS ZN,49.286899,-123.12119,2458,38.26693499484526
51843,1857,Burrard Station @ Bay 3,BUS ZN,49.286391,-123.121757,2416,18.45232111761309
50598,604,Southbound Blanca St @ W 4th Ave,BUS ZN,49.268693,-123.215183,20,46.799748422193254
50601,607,Westbound University Blvd @ Blanca St,BUS ZN,49.264016,-123.215915,14,53.28493630109404
50600,606,Blanca Loop @ Bay 2,BUS ZN,49.265146,-123.215302,15,39.453572074783374
50595,601,Westbound W 4th Ave @ Trimble St,BUS ZN,49.269028,-123.206426,90,41.98142416747225
51199,1208,Westbound Kingsway @ E 12 Ave,BUS ZN,49.260171,-123.096663,3448,37.24092092697656
50596,602,Westbound W 4th Ave @ Sasamat St,BUS ZN,49.269083,-123.209399,65,37.35849508741067
51195,1204,Westbound Kingsway @ Windsor St,BUS ZN,49.254147,-123.084079,3928,44.33428576436717
51198,1207,Westbound Kingsway @ St. George St,BUS ZN,49.25817,-123.093585,3578,58.46496569770586
51197,1206,Westbound Kingsway @ Fraser St,BUS ZN,49.257027,-123.090227,3697,44.963354458133075
51194,1203,Westbound Kingsway @ Inverness St,BUS ZN,49.252366,-123.080257,4113,43.489723161033375
51193,1202,Westbound Kingsway @ Knight St,BUS ZN,49.25051,-123.076585,4282,38.38134092426322
58044,8277,Westbound E Broadway @ Lillooet St,BUS ZN,49.262004,-123.039504,5916,36.34603506901825
50927,935,Westbound W 10 Ave @ Fir St,BUS ZN,49.262724,-123.14034,1616,51.2236277006105
50457,461,Northbound Oak St @ W 22 Ave,BUS ZN,49.251967,-123.127311,2192,29.160711200216276
52042,2059,Westbound W 49 Ave @ Adera St,BUS ZN,49.227081,-123.144091,1511,38.767339372999615
50459,463,Northbound Oak St @ W 17 Ave,BUS ZN,49.256575,-123.127109,2208,39.064869407765514
50458,462,Northbound Oak St @ W 20 Ave,BUS ZN,49.253935,-123.127236,2198,46.401405934581405
50475,10799,King Edward Station @ Bay 2,BUS ZN,49.249415,-123.115245,2674,48.93861009356357
59860,12334,Eastbound Davie St @ Richards St,BUS ZN,49.275982,-123.124529,2330,25.373957067820374
60103,12330,Northbound Cambie St @ Nelson St,BUS ZN,49.276256,-123.117748,2578,31.8633474972849
60104,12331,Northbound Cambie St @ Robson St,BUS ZN,49.278318,-123.114655,2697,24.246790000290535
50733,740,Westbound E Hastings St @ Victoria Dr,BUS ZN,49.281297,-123.066124,4769,43.32264783386865
50735,742,Northbound Nanaimo St @ E Hastings St,BUS ZN,49.281413,-123.056378,5226,32.37988371512864
50737,744,Dunbar Loop @ Bay 1,BUS ZN,49.234424,-123.185469,378,38.895035712775176
50738,745,Marpole Loop @ Bay 1,BUS ZN,49.202789,-123.133802,1876,76.90539302467984
50739,746,Eastbound SW Marine Dr @ Oak St,BUS ZN,49.204348,-123.130671,2059,33.303243947967175
50740,747,Northbound Oak Cloverleaf @ SW Marine Dr,BUS ZN,49.205921,-123.128497,2179,68.84582147101652
50742,749,Northbound Oak St @ W 70 Ave,BUS ZN,49.208777,-123.13011,2068,35.70115722031149
51041,1050,Southbound Renfrew St @ Kitchener St,BUS ZN,49.271997,-123.04431,5734,33.46081489633078
51044,1053,Southbound Renfrew St @ E 5th Ave,BUS ZN,49.265468,-123.044419,5724,29.030049959365037
51049,1058,Southbound Renfrew St @ E 15 Ave,BUS ZN,49.255993,-123.044447,5712,37.212606765100865
51050,1059,Southbound Renfrew St @ E 17 Ave,BUS ZN,49.254177,-123.044433,5708,19.587243859418674
61119,11047,Westbound E 33 Ave @ Ontario St,BUS ZN,49.240633,-123.105056,3011,21.619908478848828
50589,11046,Westbound W 4th Ave @ Collingwood St,BUS ZN,49.268649,-123.182096,483,31.992140597152876
61130,11044,Westbound W 16 Ave @ Trafalgar St,BUS ZN,49.257758,-123.165382,879,39.77538330293432
61127,11043,Westbound W 16 Ave @ Burrard St,BUS ZN,49.257239,-123.146565,1440,42.98996469746068
61131,11042,Westbound W 16 Ave @ Blenheim St,BUS ZN,49.257961,-123.178447,554,32.545616154299715
61129,11041,Westbound W 16 Ave @ Vine St,BUS ZN,49.257435,-123.15827,1050,28.64181424745978
61122,11040,Westbound W 16 Ave @ Heather St,BUS ZN,49.257062,-123.120455,2500,29.10207957403633
61101,11049,Eastbound E 33 Ave @ Ontario St,BUS ZN,49.240505,-123.104966,3011,27.88389928848615
61111,11048,Westbound E 33 Ave @ Nanaimo St,BUS ZN,49.239843,-123.059192,5077,36.30319292217791
58620,8649,Eastbound N Grandview Hwy @ Commercial Dr,BUS ZN,49.263172,-123.068542,4619,8.98633365518381
51474,8643,Westbound W Georgia St @ Cardero St,BUS ZN,49.290935,-123.130883,2060,47.503364434848486
58239,8640,Westbound W Broadway @ Granville St,BUS ZN,49.26373,-123.139771,1618,90.14872422194816
61393,11302,Waterfront Station Canada Line @ Platform 2,ZN 1,49.285139,-123.114206,2725,31.478374790452026
61394,11303,Waterfront Station @ Canada Line,ZN 1,49.285093,-123.114139,2725,31.229725326038643
51686,1700,Northbound Rupert St @ E 3rd Ave,BUS ZN,49.267805,-123.033576,6142,30.84032062217057
51688,1702,Northbound Rupert St @ Kitchener St,BUS ZN,49.272547,-123.033591,6149,31.18424345283253
51691,1705,Eastbound Adanac St @ Rupert St,BUS ZN,49.277386,-123.03308,6159,35.8509854702933
60277,12535,Northbound Seymour St @ Robson St,BUS ZN,49.28102,-123.11824,2540,53.948478987694614
51693,1707,Eastbound Adanac St @ Kootenay St,BUS ZN,49.277369,-123.024867,6451,60.030849710681736
51588,1600,Westbound W King Edward Ave @ Trafalgar St,BUS ZN,49.248213,-123.165826,868,36.1523623156561
50990,10872,Southbound Cambie St @ W 62 Ave,BUS ZN,49.213825,-123.117204,2613,36.96933902992104
51593,1605,Westbound W 16 Ave @ Wallace St,BUS ZN,49.258162,-123.191535,255,39.440122418610514
51595,1607,Westbound W 16 Ave @ Discovery St,BUS ZN,49.258337,-123.203675,108,38.8533024140593
52099,2118,Eastbound W Broadway @ Heather St,BUS ZN,49.263212,-123.120173,2510,24.672226784793516
52092,2110,Westbound Lougheed Hwy @ Boundary Loop,BUS ZN,49.265243,-123.02541,6450,33.398443094266
58621,2111,Southbound N Grandview Hwy @ E 8th Ave,BUS ZN,49.262833,-123.067725,4619,75.37199489746307
59992,10492,Northbound Pat Quinn Way @ Expo Blvd,BUS ZN,49.278392,-123.107518,2927,28.49223115918715
50874,881,Eastbound W Broadway @ Heather St,BUS ZN,49.263205,-123.119257,2510,44.5796479738601
50873,880,Eastbound W Broadway @ Willow St,BUS ZN,49.26323,-123.121293,2422,38.76111802769683
50880,887,Eastbound E Broadway @ Kingsway St,BUS ZN,49.262778,-123.099816,3306,24.520129552649728
50352,356,Eastbound W 4th Ave @ Wallace St,BUS ZN,49.26852,-123.190183,287,39.00138127330882
50350,354,Eastbound W 4th Ave @ 4100 Block,BUS ZN,49.268679,-123.197617,149,134.509772082174
50349,353,Eastbound W 4th Ave @ Trimble St,BUS ZN,49.268907,-123.2064,90,39.751159434185425
50347,351,Eastbound W 4th Ave @ Tolmie St,BUS ZN,49.268974,-123.21149,41,33.44403245881733
51259,1269,Northbound Mackenzie St @ W 38 Ave,BUS ZN,49.237919,-123.170182,731,39.97453302030275
50662,669,Northbound Slocan St @ Kingsway,BUS ZN,49.24028,-123.053651,5356,40.4814080294883
50661,668,Eastbound Kingsway @ Slocan St,BUS ZN,49.23969,-123.053631,5356,44.603716855086276
50660,667,Eastbound Kingsway @ Nanaimo St,BUS ZN,49.241611,-123.057829,5094,36.315789410510696
50659,666,Eastbound Kingsway @ Victoria Dr,BUS ZN,49.244769,-123.064604,4798,58.153295741001536
50658,665,Northbound Victoria Dr @ Kingsway,BUS ZN,49.244828,-123.065039,4798,37.4894012593424
50657,664,Northbound Victoria Dr @ E 32 Ave,BUS ZN,49.241893,-123.065138,4792,42.982454333492775
50656,663,Northbound Victoria Dr @ E 33 Ave,BUS ZN,49.24032,-123.065188,4789,34.25538020855502
51256,1266,Southbound Victoria Dr @ E 64 Ave,BUS ZN,49.21118,-123.066167,4700,30.900580268294092
51255,1265,Southbound Victoria Dr @ Thornhill Dr,BUS ZN,49.213015,-123.066138,4704,30.95820310803418
50653,660,Northbound Victoria Dr @ E 39 Ave,BUS ZN,49.234784,-123.065348,4773,17.054491906198265
51897,1911,Westbound SW Marine Dr @ Camosun St,BUS ZN,49.235286,-123.197663,169,70.66883779545098
51896,1910,Southbound Crown St @ SW Marine Dr,BUS ZN,49.234042,-123.193856,210,38.035387347927816
51898,1912,Westbound SW Marine Dr @ Kullahun Dr,BUS ZN,49.237441,-123.205607,89,56.36200713165734
60540,12775,Westbound Kingsway @ Dumfries St,BUS ZN,49.249256,-123.073752,4419,44.16211303262171
60530,12770,Eastbound Pacific St @ Jervis St,BUS ZN,49.280513,-123.137988,1736,20.820724930425772
60826,8040,Burrard Station @ Platform 2,ZN 1,49.285634,-123.119515,2529,13.682422223273475
57967,8042,Stadium-Chinatown Station @ Platform 2,ZN 1,49.279178,-123.109213,2906,69.28443581323964
50762,769,Northbound Granville St @ Park Dr,BUS ZN,49.216886,-123.140114,1648,13.540110692621187
50755,762,Westbound SW Marine Dr @ Montcalm St,BUS ZN,49.204167,-123.137246,1784,51.910278329722615
50756,763,Westbound SW Marine Dr @ Granville St,BUS ZN,49.205047,-123.139869,1626,55.22265158568223
50753,760,Northbound Oak St @ W 43 Ave,BUS ZN,49.232346,-123.128003,2161,29.7473335332436
50754,761,Northbound Oak St @ W 41 Ave,BUS ZN,49.23366,-123.127934,2164,33.071833526336945
50759,766,Northbound Granville St @ W 67 Ave,BUS ZN,49.211168,-123.140317,1638,22.572754012549098
50760,767,Northbound Granville St @ W 64 Ave,BUS ZN,49.213646,-123.140212,1641,39.465394637777855
50758,765,Northbound Granville St @ W 70 Ave,BUS ZN,49.208885,-123.14035,1633,31.67524205716963
51069,1078,Westbound E 41 Ave @ Gladstone St,BUS ZN,49.232961,-123.062675,4902,41.89937515546197
51070,1079,Eastbound E 41 Ave @ Victoria Dr,BUS ZN,49.232565,-123.065972,4767,38.36107250256978
51067,1076,Westbound E 41 Ave @ Clarendon St,BUS ZN,49.232902,-123.055955,5266,42.706293702418314
51065,1074,Southbound Clarendon St @ E 38 Ave,BUS ZN,49.235635,-123.05558,5262,27.8961812330547
51521,1533,Eastbound E King Edward Ave @ Fraser St,BUS ZN,49.24856,-123.08963,3685,38.117206836548775
51519,1531,Eastbound E King Edward Ave @ Prince Edward St,BUS ZN,49.248638,-123.096185,3439,42.570198883391505
51518,1530,Eastbound E King Edward Ave @ Main St,BUS ZN,49.248697,-123.100559,3216,34.63059447998417
60251,12518,Eastbound SW Marine Dr @ Hudson St,BUS ZN,49.20317,-123.135556,1876,57.85125274692144
50992,10857,Northbound Cambie St @ W 64 Ave,BUS ZN,49.212634,-123.116832,2609,39.337171964697426
60996,10853,Northbound Cambie St @ W 45 Ave,BUS ZN,49.230066,-123.116096,2632,33.02624937989001
51034,1043,Northbound Arbutus St @ W 15 Ave,BUS ZN,49.258543,-123.152972,1179,37.87841778371867
51032,1041,Northbound Arbutus St @ W 20 Ave,BUS ZN,49.254791,-123.15286,1213,43.22384800657103
60020,12187,Eastbound E 49 Ave @ Doman St,BUS ZN,49.224634,-123.036296,6018,24.094603252904744
60022,12186,Westbound E 49 Ave @ Doman St,BUS ZN,49.224782,-123.036952,6018,26.307794151824442
60025,12185,Northbound Champlain Cres @ E 54 Ave,BUS ZN,49.219894,-123.032299,6183,22.566303445202866
60024,12184,Southbound Champlain Cres @ E 54 Ave,BUS ZN,49.219811,-123.032506,6183,33.426063330763256
60023,12183,Southbound Arlington St @ E 49 Ave,BUS ZN,49.222808,-123.028887,6365,73.34420668978018
51037,1046,Southbound Renfrew St @ E Hastings St,BUS ZN,49.280776,-123.044219,5745,39.676754657676085
52118,2138,Eastbound W 70 Ave @ French St,BUS ZN,49.208535,-123.138831,1687,25.986012920538847
52119,2139,Southbound Hudson St @ W 70 Ave,BUS ZN,49.208213,-123.1347,1889,36.30931223255308
61660,11724,Eastbound W Broadway @ Yew St,BUS ZN,49.263761,-123.154831,1122,34.56391710088833
52062,2079,Southbound Fir St @ W 2nd Ave,BUS ZN,49.269373,-123.140897,1628,37.19686426507541
52061,2078,Westbound W 2nd Ave @ Anderson St,BUS ZN,49.26952,-123.138092,1742,21.614619314014266
51252,1262,Southbound Victoria Dr @ Upland Dr,BUS ZN,49.217768,-123.066039,4714,33.941695753315635
51251,1261,Southbound Victoria Dr @ Argyle Dr,BUS ZN,49.219611,-123.065976,4717,71.11896050530689
51785,1799,Westbound Vanness Ave @ Boundary Rd,BUS ZN,49.234733,-123.024194,6526,45.58088023282481
51250,1260,Southbound Victoria Dr @ E 53 Ave,BUS ZN,49.221481,-123.065964,4722,26.20430085978726
50654,661,Northbound Victoria Dr @ E 38 Ave,BUS ZN,49.236203,-123.065307,4777,32.10007651727059
52060,2077,Westbound Lameys Mill Rd @ 1300 Block,BUS ZN,49.267336,-123.134423,1857,66.71150317371664
52059,2076,Westbound Lameys Mill Rd @ Alder Crossing,BUS ZN,49.266831,-123.132521,1996,37.774678815558715
51015,1024,Northbound West Blvd @ W 54 Ave,BUS ZN,49.221951,-123.151884,1237,34.85352527429037
51231,1240,Northbound Commercial Diversion @ Venables St,BUS ZN,49.277014,-123.069433,4585,41.37581795980049
51523,1535,Eastbound E King Edward Ave @ Glen Dr,BUS ZN,49.248473,-123.081441,4002,31.932365992669073
51233,1242,Northbound Commercial Dr @ E Pender St,BUS ZN,49.280571,-123.070272,4524,33.47927464268538
51235,1245,Southbound Commercial Dr @ Frances St,BUS ZN,49.279104,-123.070545,4523,31.278367297609925
51237,1247,Southbound Commercial Dr @ Parker St,BUS ZN,49.275512,-123.06961,4584,27.32044404108893
51236,1246,Southbound Commercial Diversion @ Adanac St,BUS ZN,49.277328,-123.069881,4544,28.72750119835841
51239,1249,Southbound Commercial Dr @ Kitchener St,BUS ZN,49.271878,-123.069692,4579,29.635270693849247
51238,1248,Southbound Commercial Dr @ William St,BUS ZN,49.273685,-123.069647,4582,29.096181762727852
51018,1027,Northbound West Blvd @ W 49 Ave,BUS ZN,49.227498,-123.155196,1124,38.635277537765454
51527,1539,Northbound Nanaimo St @ Brock St,BUS ZN,49.244157,-123.056503,5159,21.52028373741248
51526,1538,Northbound Nanaimo St @ Kingsway,BUS ZN,49.242099,-123.057651,5094,41.40354816368436
50024,10424,Westbound Davie St @ Richards St,BUS ZN,49.276179,-123.124555,2330,41.66608825126469
58144,11532,Northbound Granville St @ Smithe St,BUS ZN,49.280784,-123.120537,2441,82.48004879822689
52032,11537,Westbound W 49 Ave @ Manitoba St,BUS ZN,49.225913,-123.109025,2908,46.79685791499853
61519,11535,Northbound Seymour St @ Dunsmuir St,BUS ZN,49.282782,-123.115596,2678,25.72231633113592
59558,11534,Westbound Dunsmuir St @ Cambie St,BUS ZN,49.280837,-123.112004,2782,45.377097435940314
50236,238,Southbound Main St @ E 5th Ave,BUS ZN,49.265849,-123.100989,3236,40.30769975690295
59390,10064,Westbound Pacific St @ Jervis St,BUS ZN,49.280964,-123.138406,1736,38.033619682267165
58099,12375,Burrard Station @ Bay 5,BUS ZN,49.285975,-123.118965,2529,56.16150580384768
58529,9063,Eastbound W Pender St @ Abbott St,BUS ZN,49.280892,-123.106976,2930,46.70327922493082
50697,704,Southbound Victoria Dr @ Kingsway,BUS ZN,49.244809,-123.0653,4798,40.648690153396984
50698,705,Southbound Victoria Dr @ E 31 Ave,BUS ZN,49.24251,-123.065373,4794,34.227785252419494
50693,700,Southbound Slocan St @ Norquay St,BUS ZN,49.242186,-123.052022,5456,38.87169371979803
50694,701,Westbound Kingsway @ Slocan St,BUS ZN,49.240309,-123.054367,5331,13.305894334020302
50695,702,Westbound Kingsway @ Nanaimo St,BUS ZN,49.242199,-123.0585,5094,45.2650873998182
61759,11881,Northbound Burrard St @ Comox St,BUS ZN,49.280758,-123.126431,2215,53.90171720643207
51965,1982,Eastbound W 49 Ave @ Heather St,BUS ZN,49.226275,-123.123158,2363,31.917762400354377
51963,1980,Eastbound W 49 Ave @ Oak St,BUS ZN,49.22645,-123.12776,2152,40.69322155925028
51590,1602,Westbound W King Edward Ave @ Blenheim St,BUS ZN,49.250183,-123.179077,546,40.76038721175152
60336,12572,Eastbound E Cordova St @ Heatley Ave,BUS ZN,49.28202,-123.089076,3708,30.0096531012874
60335,12570,Eastbound E King Edward Ave @ Ontario St,BUS ZN,49.248771,-123.104633,3025,25.90129109927198
60359,12619,Northbound Macdonald St @ W 13 Ave,BUS ZN,49.260225,-123.168239,785,27.032009699210626
60375,12616,Westbound Great Northern Way @ Carolina Street,BUS ZN,49.266868,-123.091178,3656,22.7364263624897
51330,1341,Northbound Knight St @ E 53 Ave,BUS ZN,49.221998,-123.077282,4213,24.65643271958004
50855,862,Southbound Granville St @ W 47 Ave,BUS ZN,49.228469,-123.139921,1666,33.08308362326909
61031,11706,Westbound W Georgia St @ Granville St,BUS ZN,49.282879,-123.118524,2538,49.18773388219933
50121,121,Southbound Macdonald St @ Alamein Ave,BUS ZN,49.249858,-123.167913,811,24.81296660974089
50122,122,Westbound W King Edward Ave @ Macdonald St,BUS ZN,49.248641,-123.168633,810,78.49691178117894
50123,123,Westbound W King Edward Ave @ Puget Dr,BUS ZN,49.249627,-123.170432,721,51.698601563747765
50124,124,Southbound Quesnel Dr @ W King Edward Ave,BUS ZN,49.249603,-123.171914,702,45.965435287916826
50126,126,Southbound Mackenzie St @ W 29 Ave,BUS ZN,49.245848,-123.170308,746,30.03077243038677
50128,128,Southbound Mackenzie St @ W 33 Ave,BUS ZN,49.241997,-123.170345,741,35.788722513503615
51178,1187,Southbound Joyce St @ Kingsway,BUS ZN,49.233838,-123.036343,6076,49.10317122535199
51173,1182,Westbound Kingsway @ Lincoln St,BUS ZN,49.232284,-123.026273,6411,19.18483191275012
51174,1183,Westbound Kingsway @ Melbourne St,BUS ZN,49.232118,-123.029643,6308,29.60475388367322
50067,10542,Eastbound Cornwall Ave @ Balsam St,BUS ZN,49.272582,-123.159332,1016,27.420979979820288
58392,8742,Eastbound Henning Dr @ Boundary Rd,BUS ZN,49.263596,-123.022725,6520,143.74313677504887
50925,933,Westbound W Broadway @ Heather St,BUS ZN,49.263401,-123.120227,2510,29.456362521676667
51507,1519,Eastbound W King Edward Ave @ Granville St,BUS ZN,49.249267,-123.138678,1699,32.37673523781729
51503,1515,Eastbound W King Edward Ave @ Maple Cres,BUS ZN,49.250503,-123.151127,1246,45.36909700369063
51502,1514,Eastbound W King Edward Ave @ Arbutus St,BUS ZN,49.251448,-123.153365,1180,22.515176209530388
51505,1517,Eastbound W King Edward Ave @ Marguerite St,BUS ZN,49.249352,-123.144254,1487,31.60951224008788
51499,1511,Eastbound W King Edward Ave @ Brakenridge St,BUS ZN,49.248553,-123.162016,944,28.875685543115775
51498,1510,Eastbound W King Edward Ave @ Puget Dr,BUS ZN,49.247954,-123.167306,809,43.00858957019501
51501,1513,Eastbound W King Edward Ave @ Yew St,BUS ZN,49.251217,-123.155187,1087,42.217206983683184
51500,1512,Eastbound W King Edward Ave @ Valley Dr,BUS ZN,49.249818,-123.158783,1018,35.96927538337057
54828,11553,Southbound Howe St @ W Pender St,BUS ZN,49.284791,-123.116768,2605,74.1933591246055
59538,263,Southbound Main St @ E 59 Ave,BUS ZN,49.216491,-123.102076,3166,30.009290282350534
50260,262,Southbound Main St @ E 56 Ave,BUS ZN,49.218969,-123.102003,3171,37.568790791348455
50259,261,Southbound Main St @ E 54 Ave,BUS ZN,49.22075,-123.101949,3175,35.59561407732594
50258,260,Southbound Main St @ E 51 Ave,BUS ZN,49.223508,-123.101804,3178,29.576774610087277
50265,267,Eastbound E 65 Ave @ Main St,BUS ZN,49.211695,-123.101625,3144,38.71045710613758
50264,266,Southbound Main St @ E 63 Ave,BUS ZN,49.212975,-123.102245,3151,34.989092705583005
50263,265,Southbound Main St @ E 62 Ave,BUS ZN,49.213842,-123.102217,3153,20.843915546094696
59392,10048,Westbound Beach Ave @ Thurlow St,BUS ZN,49.277896,-123.135648,1850,39.34571765925281
59391,10049,Westbound Beach Ave @ Bute St,BUS ZN,49.279589,-123.137338,1785,38.42490587443583
50972,981,Eastbound W Georgia St @ Denman St,BUS ZN,49.292217,-123.133397,1930,47.70862944349168
50976,985,Eastbound W Georgia St @ Granville St,BUS ZN,49.28264,-123.118529,2579,35.0512133045463
60208,12393,29th Avenue Station @ Bay 4,BUS ZN,49.244435,-123.044461,5696,19.084794879699135
58286,9087,Southbound Cambie St @ W 29 Ave,BUS ZN,49.245383,-123.115868,2665,32.27564297016465
58281,9085,Westbound E 49 Ave @ Frontenac St,BUS ZN,49.222475,-123.026533,6429,37.219275446168865
52020,2037,Westbound E 49 Ave @ Bruce St,BUS ZN,49.225286,-123.070409,4547,37.235604431292494
50720,727,Northbound Nanaimo St @ E 11 Ave,BUS ZN,49.260339,-123.056471,5185,8.89353751206448
50717,724,Northbound Nanaimo St @ E 17 Ave,BUS ZN,49.255356,-123.056484,5176,30.66069283754114
50718,725,Northbound Nanaimo St @ S Grandview Hwy,BUS ZN,49.257382,-123.056473,5180,43.40539987231538
50715,722,Northbound Nanaimo St @ E 22 Ave,BUS ZN,49.251051,-123.056489,5170,47.86905817224948
50716,723,Northbound Nanaimo St @ E 20 Ave,BUS ZN,49.252691,-123.056482,5174,12.097136064294435
50713,720,Westbound E 41 Ave @ Prince Edward St,BUS ZN,49.233094,-123.097712,3411,38.98789637675499
50721,728,Northbound Nanaimo St @ E Broadway,BUS ZN,49.262477,-123.056433,5188,38.67921381748294
50722,729,Northbound Nanaimo St @ E 6th Ave,BUS ZN,49.265123,-123.056462,5195,18.677673041402976
51155,1164,Eastbound Kingsway @ Lincoln St,BUS ZN,49.232088,-123.026055,6443,15.933047534805093
51156,1165,Eastbound Kingsway @ Boundary Rd,BUS ZN,49.232257,-123.022286,6523,97.84626438984425
51151,1160,Eastbound Kingsway @ Joyce St,BUS ZN,49.233834,-123.03553,6076,42.385182055804115
51152,1161,Eastbound Kingsway @ Wessex St,BUS ZN,49.232943,-123.033767,6110,32.066002728842925
51153,1162,Eastbound Kingsway @ Tyne St,BUS ZN,49.231987,-123.031656,6219,28.794659477872152
51154,1163,Eastbound Kingsway @ Melbourne St,BUS ZN,49.231961,-123.028846,6308,30.935581248416383
52018,2035,Westbound E 49 Ave @ Victoria Dr,BUS ZN,49.225238,-123.065364,4739,26.833406768447585
52017,2034,Westbound E 49 Ave @ Gladstone St,BUS ZN,49.225187,-123.06295,4893,45.8745193609935
52016,2033,Westbound E 49 Ave @ Nanaimo St,BUS ZN,49.225118,-123.05961,5055,36.89282725444953
60506,12804,Eastbound Pacific St @ Seymour Mews,BUS ZN,49.274423,-123.128718,2153,22.615149358167862
51702,1716,Southbound Rupert St @ Grant St,BUS ZN,49.27109,-123.033737,6148,27.917523468166593
52015,2032,Westbound E 49 Ave @ Elliott St,BUS ZN,49.224889,-123.05517,5287,32.754639479007224
51705,1719,Southbound Rupert St @ E 5th Ave,BUS ZN,49.265956,-123.03388,6137,33.54812532446922
58953,10895,Westbound E 10 Ave @ Kingsway,BUS ZN,49.26203,-123.099601,3257,51.73775094558994
61616,11762,29th Avenue Station @ Bay 5,BUS ZN,49.244392,-123.044987,5696,50.212252170724796
50109,109,Southbound Macdonald St @ W 6th Ave,BUS ZN,49.266274,-123.168483,782,41.11151452674619
50103,103,Westbound Cornwall Ave @ Arbutus St,BUS ZN,49.272608,-123.152989,1212,30.214111260958397
50106,106,Westbound Cornwall Ave @ Trafalgar St,BUS ZN,49.272799,-123.164636,906,22.366916733813802
50107,107,Southbound Macdonald St @ W 1st Ave,BUS ZN,49.270753,-123.168323,791,32.90824109114837
50104,104,Westbound Cornwall Ave @ Yew St,BUS ZN,49.272645,-123.155439,1142,35.88970636729693
50105,105,Westbound Cornwall Ave @ Point Grey Rd,BUS ZN,49.272731,-123.160216,1016,38.82911866879264
50341,345,Southbound Oak St @ W 33 Ave,BUS ZN,49.241077,-123.12796,2171,40.75923742131439
50336,340,Southbound Oak St @ Balfour Ave,BUS ZN,49.251423,-123.12759,2192,34.633471764478266
50337,341,Southbound Oak St @ W King Edward Ave,BUS ZN,49.248653,-123.127716,2185,57.50902397120834
50338,342,Southbound Oak St @ Nanton Ave,BUS ZN,49.245988,-123.127793,2183,36.91634119791913
58290,8838,Southbound Nanaimo St @ Grandview Hwy,BUS ZN,49.257321,-123.056751,5180,50.562637673647075
51745,1759,Northbound Boundary Rd @ Venables St,BUS ZN,49.276981,-123.023311,6546,52.78034753967889
51744,1758,Northbound Boundary Rd @ William St,BUS ZN,49.274253,-123.023314,6538,26.786131831638258
51743,1757,Northbound Boundary Rd @ Kitchener St,BUS ZN,49.272518,-123.02333,6537,81.81983506909003
51742,1756,Northbound Boundary Rd @ 1st Ave,BUS ZN,49.269895,-123.023355,6531,49.42988177162821
51741,1755,Northbound Boundary Rd @ 2nd Ave,BUS ZN,49.268791,-123.023347,6529,42.69399943807569
51737,1751,Northbound Boundary Rd @ Grandview Hwy,BUS ZN,49.258575,-123.023406,6516,51.34898385325413
51736,1750,Northbound Boundary Rd @ Dominion St,BUS ZN,49.256757,-123.023409,6516,156.68407392451056
51274,1285,Southbound Gore Ave @ Union St,BUS ZN,49.27736,-123.09702,3431,28.67076096269901
51273,1284,Southbound Gore Ave @ Keefer St,BUS ZN,49.279105,-123.097251,3415,36.29485844121913
51276,1287,Eastbound Terminal Ave @ Thornton St,BUS ZN,49.271619,-123.093947,3574,46.16993795580637
51275,1286,Eastbound Terminal Ave @ Western St,BUS ZN,49.272477,-123.098889,3346,20.792350604534118
51272,1283,Eastbound E Pender St @ Main St,BUS ZN,49.280323,-123.099245,3289,31.734817656118338
51278,1289,Eastbound Prior St @ Dunlevy Ave,BUS ZN,49.276624,-123.095194,3471,27.84038839450668
51277,1288,Eastbound Terminal Ave @ Begg St,BUS ZN,49.270461,-123.087037,3788,36.425531284070544
51566,1578,Westbound E King Edward Ave @ Windsor St,BUS ZN,49.248642,-123.084376,3915,37.334901363046065
60819,8761,Rupert Station @ Platform 2,ZN 1,49.260733,-123.032821,6204,124.51222892914161
60823,8763,Commercial-Broadway Station @ Platform 2,ZN 1,49.262912,-123.068491,4619,38.06624235014188
60821,8762,Renfrew Station @ Platform 2,ZN 1,49.258877,-123.045348,5716,86.25135043632191
50678,685,Southbound Nanaimo St @ E 1st Ave,BUS ZN,49.269138,-123.05673,5203,41.85314763714585
51560,1572,Nanaimo Station @ Bay 2,BUS ZN,49.248591,-123.055976,5167,50.39688419347542
50680,687,Southbound Nanaimo St @ E 5th Ave,BUS ZN,49.265535,-123.056743,5197,24.095001384811848
51558,1570,Westbound E 22 Ave @ Renfrew St,BUS ZN,49.250692,-123.043612,5730,42.15872127461046
51565,1577,Westbound E King Edward Ave @ Inverness St,BUS ZN,49.248594,-123.080402,4095,29.49950887313143
51564,1576,Westbound E King Edward Ave @ Knight St,BUS ZN,49.248608,-123.076586,4276,35.328638069003226
51563,1575,Westbound E King Edward Ave @ Kingsway,BUS ZN,49.24854,-123.073107,4418,19.068814332066985
50675,682,Southbound Nanaimo St @ William St,BUS ZN,49.27362,-123.056724,5211,26.948341975940313
60412,12707,Westbound W 12th Ave @ Pine St,BUS ZN,49.260917,-123.143876,1529,29.906268739599696
60411,12706,Eastbound W 12 Ave @ Pine St,BUS ZN,49.260786,-123.143122,1529,26.72116411551307
60414,12709,Eastbound W 12th Ave @ Laurel St,BUS ZN,49.260473,-123.12392,2320,27.043585067383862
51234,1244,Southbound Commercial Dr @ E Hastings St,BUS ZN,49.280806,-123.070549,4525,48.72453709151353
58307,245,Southbound Main St @ E 18 Ave,BUS ZN,49.254339,-123.100959,3231,29.34205349430088
50242,244,Southbound Main St @ E 16 Ave,BUS ZN,49.256251,-123.101386,3208,38.56444924214912
50245,247,Southbound Main St @ E 22 Ave,BUS ZN,49.250676,-123.101089,3222,30.09155732146351
50244,246,Southbound Main St @ E 20 Ave,BUS ZN,49.252395,-123.101095,3228,36.410959207792615
50241,243,Southbound Main St @ E 14 Ave,BUS ZN,49.258082,-123.101305,3212,36.17268086747284
50240,242,Southbound Main St @ E 12 Ave,BUS ZN,49.259888,-123.10127,3215,37.44455505940331
50246,248,Southbound Main St @ E King Edward Ave,BUS ZN,49.248466,-123.101194,3216,36.31983762020548
52134,2154,Eastbound SE Marine Dr @ Prince Edward St,BUS ZN,49.210767,-123.097945,3364,12.014635474388431
58037,9530,Eastbound W Broadway @ Alma St,BUS ZN,49.264263,-123.184623,418,62.26126611043257
51134,1143,Eastbound Kingsway @ E Broadway,BUS ZN,49.262551,-123.099412,3306,34.23488775572582
51137,1146,Eastbound Kingsway @ Carolina St,BUS ZN,49.257418,-123.092371,3594,16.50728026016234
51138,1147,Eastbound Kingsway @ Fraser St,BUS ZN,49.256214,-123.089018,3695,64.69623815136357
51135,1144,Eastbound Kingsway @ E 12 Ave,BUS ZN,49.260192,-123.097102,3448,55.957205031910156
51136,1145,Eastbound Kingsway @ E 13 Ave,BUS ZN,49.258948,-123.095429,3495,35.493825381417345
51140,1149,Eastbound Kingsway @ Glen Dr,BUS ZN,49.252628,-123.081356,4005,32.21231532783602
50761,768,Northbound Granville St @ W 62 Ave,BUS ZN,49.215299,-123.140165,1644,30.70861838812899
50970,8537,Southbound Victoria Dr @ E 22 Ave,BUS ZN,49.249893,-123.065127,4805,44.180997357301734
50377,381,Eastbound W 41 Ave @ Carnarvon St,BUS ZN,49.234677,-123.172505,669,38.689042090468476
50378,382,Eastbound W 41 Ave @ Macdonald St,BUS ZN,49.234665,-123.166968,829,29.48081876336123
50379,383,Eastbound W 41 Ave @ Elm St,BUS ZN,49.234632,-123.16364,911,37.29227780721161
50380,384,Eastbound W 41 Ave @ Balsam St,BUS ZN,49.234588,-123.160946,970,28.42276874919531
50381,385,Eastbound W 41 Ave @ Yew St,BUS ZN,49.234552,-123.158131,1036,28.0880866985191
50383,387,Eastbound W 41 Ave @ Maple St,BUS ZN,49.234437,-123.151616,1230,31.646212526873086
50384,388,Eastbound W 41 Ave @ Cypress St,BUS ZN,49.234394,-123.148854,1317,25.9927898274073
50385,389,Eastbound W 41 Ave @ Wiltshire St,BUS ZN,49.234351,-123.145952,1424,26.488017072925867
51068,1077,Westbound E 41 Ave @ Nanaimo St,BUS ZN,49.232926,-123.059252,5068,29.38956450855863
51066,1075,Southbound Clarendon St @ E 40 Ave,BUS ZN,49.233499,-123.055616,5260,41.53939412758654
51062,1071,Westbound Kingsway @ Earles St,BUS ZN,49.237873,-123.049127,5555,33.60763396303371
52029,2046,Westbound E 49 Ave @ Prince Edward St,BUS ZN,49.22566,-123.098055,3394,40.44903686789265
52030,2047,Westbound E 49 Ave @ Main St,BUS ZN,49.225733,-123.102131,3180,38.28594902242241
59525,39,Westbound Water St @ Abbott St,BUS ZN,49.28411,-123.107364,2976,76.66744426448513
52027,2044,Westbound E 49 Ave @ Fraser St,BUS ZN,49.225535,-123.091289,3659,39.27655434474786
52028,2045,Westbound E 49 Ave @ St. George St,BUS ZN,49.225593,-123.094471,3535,29.910277146128223
50169,169,Northbound Main St @ E King Edward Ave,BUS ZN,49.249121,-123.100891,3217,27.107897573772142
50165,165,Northbound Main St @ E 33 Ave,BUS ZN,49.241308,-123.101314,3200,75.46582664938506
50166,166,Northbound Main St @ E 30 Ave,BUS ZN,49.243554,-123.101232,3202,31.537568142029965
50167,167,Northbound Main St @ E 28 Ave,BUS ZN,49.245968,-123.101101,3207,8.94268539019268
50160,160,Oakridge-41st Ave Station @ Bay 5,BUS ZN,49.233681,-123.116855,2641,51.751002963321966
50162,162,Northbound Main St @ E 39 Ave,BUS ZN,49.235734,-123.101505,3184,34.77968989707496
50163,163,Northbound Main St @ E 36 Ave,BUS ZN,49.23802,-123.101502,3186,14.777012719624079
52023,2040,Westbound E 49 Ave @ Inverness St,BUS ZN,49.225407,-123.080565,4090,39.55182346623338
52024,2041,Westbound E 49 Ave @ Elgin St,BUS ZN,49.225453,-123.083275,3962,35.573236833079825
52712,2737,Eastbound W Hastings St @ Abbott St,BUS ZN,49.282214,-123.108834,2883,60.067733798606234
52705,2730,Southbound Boundary Rd @ E Kent Ave,BUS ZN,49.20373,-123.023457,6560,25.647353023407334
52713,2738,Eastbound E Hastings St @ Main St,BUS ZN,49.28122,-123.098307,3404,62.047452412528266
52714,2739,Eastbound E Hastings St @ Commercial Dr,BUS ZN,49.281131,-123.07086,4525,36.88198634112884
59766,10365,Eastbound Great Northern Way @ Foley St,BUS ZN,49.266021,-123.086122,3821,43.71973870522227
59763,10364,Eastbound Great Northern Way @ Brunswick St,BUS ZN,49.266743,-123.095812,3457,30.648701318901022
59758,10361,Eastbound W 2nd Ave @ Columbia St,BUS ZN,49.269029,-123.109733,2862,15.678373938112005
61039,10360,Olympic Village Station @ Bay 2,BUS ZN,49.266425,-123.114936,2680,28.540021268202842
59760,10362,Eastbound E 2nd Ave @ Ontario St,BUS ZN,49.269125,-123.104153,3047,36.0907618510746
58313,11616,Northbound Granville St @ W Pender St,BUS ZN,49.284493,-123.114994,2703,21.31636152879572
59434,11610,Westbound E 49 Ave @ Vivian St,BUS ZN,49.224856,-123.050858,5480,40.89801680330886
50802,809,Southbound Fraser St @ E 65 Ave,BUS ZN,49.211508,-123.091218,3625,35.21515345113014
50801,808,Southbound Fraser St @ E 63 Ave,BUS ZN,49.212749,-123.091181,3626,19.028602640004813
50796,803,Southbound Fraser St @ E 53 Ave,BUS ZN,49.22148,-123.091,3651,32.998499410698045
50795,802,Southbound Fraser St @ E 51 Ave,BUS ZN,49.223292,-123.090958,3657,32.690041365271796
50794,801,Southbound Fraser St @ E 49 Ave,BUS ZN,49.225133,-123.090918,3659,38.82068318772183
50793,800,Southbound Fraser St @ E 47 Ave,BUS ZN,49.227099,-123.090813,3663,31.107167737635958
50800,807,Southbound Fraser St @ E 61 Ave,BUS ZN,49.214571,-123.091155,3632,31.438707179280954
50799,806,Southbound Fraser St @ E 59 Ave,BUS ZN,49.216234,-123.091124,3636,33.20057726485086
50798,805,Southbound Fraser St @ E 57 Ave,BUS ZN,49.217937,-123.091092,3643,36.55011824009847
51763,1777,Southbound Boundary Rd @ Napier St,BUS ZN,49.274644,-123.023771,6541,34.894239347790624
50375,379,Eastbound W 41 Ave @ Blenheim St,BUS ZN,49.234696,-123.178303,528,29.837115805137028
50467,11103,Oakridge-41st Ave Station @ Bay 6,BUS ZN,49.233905,-123.115953,2641,43.939288631166946
61100,11100,Eastbound Midlothian Ave @ Clancy Loranger Way,BUS ZN,49.242588,-123.108805,2900,48.29099732795314
61810,12026,Northbound Smithe St @ Expo Blvd,BUS ZN,49.276112,-123.114934,2712,39.13168542917754
52123,12027,Marpole Loop @ Bay 5,BUS ZN,49.203203,-123.133071,1934,122.29793842862446
60562,11829,Northbound N Boundary Rd @ Trinity St,BUS ZN,49.289497,-123.023179,6562,26.941856305195913
51508,1520,Eastbound W King Edward Ave @ Hudson St,BUS ZN,49.249192,-123.133894,1900,35.979762257982024
50086,10058,Westbound Pacific Blvd @ Drake St,BUS ZN,49.27342,-123.124214,2364,38.983353812663495
51510,1522,Eastbound W King Edward Ave @ Oak St,BUS ZN,49.24909,-123.127001,2187,41.32925445641323
51610,1622,Southbound Kerr St @ E 49 Ave,BUS ZN,49.224314,-123.041185,5862,48.26712773167962
51511,1523,Eastbound W King Edward Ave @ Willow St,BUS ZN,49.248988,-123.121932,2396,30.812624200721213
51975,1992,Eastbound E 49 Ave @ Fraser St,BUS ZN,49.225406,-123.090264,3659,36.52945865172846
50087,10057,Westbound Pacific St @ Richards St,BUS ZN,49.273623,-123.127085,2194,29.95354929486021
51978,1995,Eastbound E 49 Ave @ Sherbrooke St,BUS ZN,49.225278,-123.080946,4020,35.236546543848306
51614,1626,Southbound Kerr St @ E 59 Ave,BUS ZN,49.216248,-123.041587,5832,27.274833908414
59767,10196,VCC-Clark Station @ Unloading Only,BUS ZN,49.265975,-123.079842,4134,37.12829505107917
51980,1997,Eastbound E 49 Ave @ Dumfries St,BUS ZN,49.225193,-123.074083,4340,32.19035439166046
51979,1996,Eastbound E 49 Ave @ Knight St,BUS ZN,49.225208,-123.076725,4224,41.009689899029716
51119,1128,Northbound Adera St @ W 64 Ave,BUS ZN,49.213522,-123.143433,1513,37.315146599411875
51120,1129,Marpole Loop @ Bay 2,BUS ZN,49.20325,-123.132871,2007,113.55857533026723
51111,1120,Southbound Arbutus St @ W 49 Ave,BUS ZN,49.226773,-123.155273,1124,43.36650017898135
51112,1121,Eastbound W 51 Ave @ Arbutus St,BUS ZN,49.224918,-123.154675,1119,39.93967681573896
51113,1122,Southbound West Blvd @ W 53 Ave,BUS ZN,49.222481,-123.1524,1207,35.76394980315858
51115,1124,Southbound West Blvd @ W 60 Ave,BUS ZN,49.216794,-123.149023,1318,37.51755652951839
51117,1126,Southbound Angus Dr @ W 63 Ave,BUS ZN,49.2139,-123.148557,1339,26.497524845213597
51118,1127,Eastbound W 64 Ave @ East Blvd,BUS ZN,49.213182,-123.146293,1414,21.428775684007622
57966,8041,Granville Station @ Platform 2,ZN 1,49.283136,-123.115744,2661,20.26297153080541
57968,8043,Main Street-Science World Station @ Platform 2,ZN 1,49.273099,-123.100399,3271,46.02811412088685
57969,8044,Commercial-Broadway Station @ Platform 4,ZN 1,49.262317,-123.069179,4561,41.233241737011575
57972,8047,Joyce-Collingwood Station @ Platform 2,ZN 1,49.238353,-123.031827,6209,11.379154140970883
50550,555,Southbound Granville St @ N Connaught Dr,BUS ZN,49.244793,-123.139357,1691,52.872929572907694
58588,554,Southbound Granville St @ Nanton Ave,BUS ZN,49.247111,-123.139289,1695,34.862821382695756
59765,10350,Westbound Great Northern Way @ Foley St,BUS ZN,49.266404,-123.087137,3821,41.362284357798025
58321,4881,Southbound Howe St @ Dunsmuir St,BUS ZN,49.284055,-123.11788,2605,42.35716125211442
54830,4882,Southbound Howe St @ W Georgia St,BUS ZN,49.282906,-123.119595,2538,44.89495678822086
50146,146,Northbound Main St @ E 59 Ave,BUS ZN,49.217015,-123.101819,3166,31.18375725788868
50147,147,Northbound Main St @ E 57 Ave,BUS ZN,49.218788,-123.10174,3169,38.691904741045455
59844,144,Northbound Main St @ E 62 Ave,BUS ZN,49.214623,-123.101909,3157,31.056592640030814
54831,4883,Southbound Howe St @ Robson St,BUS ZN,49.281831,-123.121239,2461,37.219820183511544
50142,142,Northbound Main St @ SE Marine Dr,BUS ZN,49.211565,-123.102035,3144,22.97495824366227
50140,140,Eastbound E 41 Ave @ Ontario St,BUS ZN,49.233063,-123.105218,3003,32.203870675033976
54835,4887,Southbound Granville St @ W Cloverleaf,BUS ZN,49.266704,-123.138572,1726,13.139152301205245
50013,10694,Eastbound Pacific St @ Richards St,BUS ZN,49.273529,-123.127316,2194,24.72118871838109
60386,12631,Eastbound W 41 Ave @ East Blvd,BUS ZN,49.234483,-123.154407,1135,43.53986282867869
60385,12632,Westbound W 41 Ave @ East Blvd,BUS ZN,49.234672,-123.15479,1135,19.217544327671515
50821,828,Northbound Fraser St @ E 62 Ave,BUS ZN,49.214241,-123.090903,3630,12.82696132678822
50820,827,Northbound Fraser St @ E 65 Ave,BUS ZN,49.212147,-123.090933,3625,38.8676291591244
50819,826,Westbound SW Marine Dr @ Oak St,BUS ZN,49.20453,-123.131063,2059,51.10779014158196
50813,820,Southbound Oak St @ Park Dr,BUS ZN,49.214689,-123.130177,2079,28.281991233319026
50816,823,Southbound Oak St @ W 70 Ave,BUS ZN,49.208654,-123.130386,2068,23.797784962474235
50815,822,Southbound Oak St @ W 67 Ave,BUS ZN,49.21048,-123.130325,2074,29.76533413965901
51699,1713,Southbound Rupert St @ Adanac St,BUS ZN,49.277105,-123.033686,6159,37.932523898294875
51698,1712,Westbound Adanac St @ Skeena St,BUS ZN,49.277492,-123.028787,6351,34.71619313640243
51697,1711,Southbound Boundary Rd @ E Georgia St,BUS ZN,49.277916,-123.023773,6547,38.78505810814751
51696,1710,Southbound Boundary Rd @ E Pender St,BUS ZN,49.279904,-123.023768,6548,34.751713963784724
51701,1715,Southbound Rupert St @ Charles St,BUS ZN,49.272956,-123.033718,6151,32.81389964607108
51700,1714,Southbound Rupert St @ Parker St,BUS ZN,49.275459,-123.033703,6155,37.716680556452665
50914,922,Westbound E Broadway @ Woodland Dr,BUS ZN,49.262447,-123.074067,4393,34.69417143212663
52988,3019,Southbound N Boundary Rd @ Eton St,BUS ZN,49.287261,-123.02361,6557,49.85928360063641
50201,201,Eastbound W 41 Ave @ Osler St,BUS ZN,49.233911,-123.129836,2063,39.906199545723666
50200,200,Eastbound W 41 Ave @ Selkirk St,BUS ZN,49.23404,-123.132898,1970,28.62206687620211
56125,202,Northbound Granville St @ W 41 Ave,BUS ZN,49.234888,-123.139463,1672,54.28390522121295
